;stop_id;stop_name;lon;lat;count;geometry;color
0;7;Дербеневская наб.;37.6551636;55.72566817;71;POINT (37.6551636 55.72566817);blue
1;11;Наб. Тараса Шевченко;37.57240854;55.74944352;100;POINT (37.57240854 55.74944352);green
2;12;Наб. Тараса Шевченко;37.57271647;55.74976112;98;POINT (37.57271647 55.74976112);blue
3;27;ВКНЦ;37.37550932;55.7572642;169;POINT (37.37550932 55.7572642);green
4;40;Ул. 800-летия Москвы;37.54599654;55.87767168;293;POINT (37.54599654 55.87767168);yellow
5;41;Бескудниково;37.54704248;55.87458982;293;POINT (37.54704248 55.87458982);yellow
6;42;Селигерская ул.;37.54674812;55.86919544;435;POINT (37.54674812 55.86919544);pink
7;43;Парк Святослава Федорова;37.5484894912;55.8633348164;265;POINT (37.5484894912 55.8633348164);yellow
8;44;Ильменский пр.;37.55318989;55.86077256;265;POINT (37.55318989 55.86077256);yellow
9;45;Метро «Верхние Лихоборы» - Северный вестибюль;37.5582614716;55.8582121735;265;POINT (37.5582614716 55.8582121735);yellow
10;47;Нижн. Лихоборы;37.5673105;55.84733792;76;POINT (37.5673105 55.84733792);blue
11;48;Метро «Петровско-Разумовская»;37.57585651;55.83716907;439;POINT (37.57585651 55.83716907);pink
12;49;Михалковская ул.;37.53956854;55.8371443498;626;POINT (37.53956854 55.8371443498);red
13;50;Стадион «Наука»;37.5328525;55.83295208;433;POINT (37.5328525 55.83295208);pink
14;51;Управа района Коптево;37.52242762;55.82411549;205;POINT (37.52242762 55.82411549);yellow
15;52;К/т «Рассвет»;37.51887274;55.82307265;205;POINT (37.51887274 55.82307265);yellow
16;53;3-й Новоподмосковный пер.;37.51071983;55.82087948;205;POINT (37.51071983 55.82087948);yellow
17;54;3-й Новоподмосковный пер.;37.51203859;55.8210445;201;POINT (37.51203859 55.8210445);yellow
18;55;К/т «Рассвет»;37.51687828;55.82237098;201;POINT (37.51687828 55.82237098);yellow
19;56;Управа района Коптево;37.5231852;55.82399093;201;POINT (37.5231852 55.82399093);yellow
20;57;Стадион «Наука»;37.53338601;55.83304516;444;POINT (37.53338601 55.83304516);pink
21;61;7-й автобусный парк;37.56524413;55.85199725;373;POINT (37.56524413 55.85199725);orange
22;62;Метро «Верхние Лихоборы» - Северный вестибюль;37.55947707;55.8580184;266;POINT (37.55947707 55.8580184);yellow
23;63;Ильменский пр.;37.5540423035;55.8609062765;266;POINT (37.5540423035 55.8609062765);yellow
24;64;Парк Святослава Федорова;37.54918648;55.86376719;94;POINT (37.54918648 55.86376719);blue
25;65;Селигерская ул.;37.54748211;55.86854848;529;POINT (37.54748211 55.86854848);red
26;66;Бескудниково;37.54811496;55.87427208;293;POINT (37.54811496 55.87427208);yellow
27;73;Платф. Грачёвская;37.51160056;55.86956661;538;POINT (37.51160056 55.86956661);red
28;74;Весенняя ул.;37.51459808;55.87376954;335;POINT (37.51459808 55.87376954);orange
29;75;Мкр. Западное Дегунино;37.5174212;55.87606574;335;POINT (37.5174212 55.87606574);orange
30;76;Ангарская ул.;37.52218296;55.87921929;427;POINT (37.52218296 55.87921929);pink
31;77;Колледж № 7;37.52067236;55.88456731;72;POINT (37.52067236 55.88456731);blue
32;78;Ин-т Микрохирургии глаза;37.53738746;55.86877206;332;POINT (37.53738746 55.86877206);orange
33;79;Селигерская ул.;37.54237868;55.86639614;150;POINT (37.54237868 55.86639614);green
34;80;К/т «Комсомолец»;37.57003659;55.84090834;178;POINT (37.57003659 55.84090834);green
35;81;Педагогический колледж;37.55258978;55.84190084;396;POINT (37.55258978 55.84190084);orange
36;82;Университет Природообустройства;37.54470218;55.83894722;433;POINT (37.54470218 55.83894722);pink
37;83;Роддом № 27;37.53038275;55.8289194;579;POINT (37.53038275 55.8289194);red
38;84;Роддом № 27;37.53085818;55.82911305;602;POINT (37.53085818 55.82911305);red
39;85;Университет Природообустройства;37.54499163;55.83864991;397;POINT (37.54499163 55.83864991);orange
40;86;Педагогический колледж;37.5546848;55.84225467;397;POINT (37.5546848 55.84225467);orange
41;87;Метро «Петровско-Разумовская»;37.5755751;55.83730911;23;POINT (37.5755751 55.83730911);blue
42;91;Метро «Селигерская»;37.54477895;55.86556347;331;POINT (37.54477895 55.86556347);orange
43;92;Селигерская ул.;37.54054356;55.86754868;331;POINT (37.54054356 55.86754868);orange
44;93;Ин-т Микрохирургии глаза;37.53539092;55.86998419;331;POINT (37.53539092 55.86998419);orange
45;94;Колледж № 7;37.51853547;55.88351247;70;POINT (37.51853547 55.88351247);blue
46;95;Ангарская ул.;37.5202723;55.87759056;330;POINT (37.5202723 55.87759056);orange
47;96;Мкр. Западное Дегунино;37.51697285;55.87600214;330;POINT (37.51697285 55.87600214);orange
48;97;Весенняя ул.;37.51498184;55.87432548;330;POINT (37.51498184 55.87432548);orange
49;98;Платф. Грачёвская;37.51078637;55.86998315;535;POINT (37.51078637 55.86998315);red
50;99;Онкологический диспансер;37.50259018;55.82324046;191;POINT (37.50259018 55.82324046);green
51;100;Старопетровский пр.;37.50872434;55.82466889;191;POINT (37.50872434 55.82466889);green
52;107;Онежская ул. - Колледж;37.52181196;55.84540799;338;POINT (37.52181196 55.84540799);orange
53;108;3-й Лихачевский пер.;37.52077371;55.84940542;338;POINT (37.52077371 55.84940542);orange
54;109;Онежская ул., 19;37.5192826;55.85217697;338;POINT (37.5192826 55.85217697);orange
55;111;Флотская ул.;37.508804660376;55.8595968610101;114;POINT (37.508804660376 55.8595968610101);green
56;112;Фестивальная ул.;37.50413371;55.86302215;46;POINT (37.50413371 55.86302215);blue
57;113;М-н Книги;37.5002661697;55.8647419791;46;POINT (37.5002661697 55.8647419791);blue
58;114;Аптека;37.49690351;55.86590354;46;POINT (37.49690351 55.86590354);blue
59;115;Петрозаводская ул.;37.49047802;55.86710975;114;POINT (37.49047802 55.86710975);green
60;116;15-й таксомоторный парк;37.4835904385;55.8670126721;114;POINT (37.4835904385 55.8670126721);green
61;117;Метро «Беломорская»;37.47707357;55.86531154;369;POINT (37.47707357 55.86531154);orange
62;118;Смольная ул., 45;37.47967752;55.86286328;369;POINT (37.47967752 55.86286328);orange
63;119;Школа им. Марш. Говорова;37.48169028;55.86114044;369;POINT (37.48169028 55.86114044);orange
64;120;Смольная ул.;37.48466984;55.8581037;830;POINT (37.48466984 55.8581037);red
65;121;Автокомбинат № 3;37.56315646;55.84366117;248;POINT (37.56315646 55.84366117);yellow
66;122;Учебный центр;37.52245028;55.88566944;72;POINT (37.52245028 55.88566944);blue
67;126;Ангарская ул.;37.52317839;55.87781596;384;POINT (37.52317839 55.87781596);orange
68;127;Протезный з-д;37.52851198;55.87373993;354;POINT (37.52851198 55.87373993);orange
69;128;Талдомская ул.;37.5259288;55.87563883;391;POINT (37.5259288 55.87563883);orange
70;133;Учебный центр;37.52142869;55.88537864;70;POINT (37.52142869 55.88537864);blue
71;134;Школа им. Марш. Говорова;37.48215583;55.86106097;354;POINT (37.48215583 55.86106097);orange
72;135;Смольная ул., 45;37.48021163;55.86265788;354;POINT (37.48021163 55.86265788);orange
73;136;15-й таксомоторный парк;37.48607811;55.86682693;114;POINT (37.48607811 55.86682693);green
74;137;Петрозаводская ул.;37.49280228;55.86659387;45;POINT (37.49280228 55.86659387);blue
75;138;Аптека;37.49827389;55.86519568;45;POINT (37.49827389 55.86519568);blue
76;139;М-н Книги;37.50217988;55.86378554;45;POINT (37.50217988 55.86378554);blue
77;140;Фестивальная ул.;37.50594619;55.86137424;114;POINT (37.50594619 55.86137424);green
78;141;Флотская ул.;37.50941753;55.85883776;114;POINT (37.50941753 55.85883776);green
79;143;Онежская ул., 19;37.51918742;55.85154723;256;POINT (37.51918742 55.85154723);yellow
80;144;Онежская ул. - Колледж;37.52157813;55.84409988;256;POINT (37.52157813 55.84409988);yellow
81;151;Старопетровский пр.;37.50758103;55.82460143;183;POINT (37.50758103 55.82460143);green
82;152;Онкологический диспансер;37.50344704;55.82364048;183;POINT (37.50344704 55.82364048);green
83;154;Коровинское ш.;37.51857144;55.88231105;415;POINT (37.51857144 55.88231105);pink
84;155;Талдомская ул.;37.52852678;55.8751219;52;POINT (37.52852678 55.8751219);blue
85;156;Ин-т Микрохирургии глаза;37.53908121;55.87320802;288;POINT (37.53908121 55.87320802);yellow
86;157;Муз. школа;37.5438328;55.87348434;288;POINT (37.5438328 55.87348434);yellow
87;158;Аптека;37.5524069;55.87321427;52;POINT (37.5524069 55.87321427);blue
88;159;Школа № 656;37.554861;55.87114913;52;POINT (37.554861 55.87114913);blue
89;160;Рогачевский пер.;37.55767154;55.86750227;52;POINT (37.55767154 55.86750227);blue
90;161;Бескудниковский пер.;37.56080902;55.86350936;52;POINT (37.56080902 55.86350936);blue
91;162;Торговый центр;37.5619061;55.86192215;162;POINT (37.5619061 55.86192215);green
92;163;Роддом № 27;37.52868045;55.83113889;47;POINT (37.52868045 55.83113889);blue
93;164;Коптевский рынок;37.52185322;55.83295193;47;POINT (37.52185322 55.83295193);blue
94;165;Коптевская ул.;37.51809726;55.82930661;183;POINT (37.51809726 55.82930661);green
95;166;Коптевская ул.;37.51910841;55.83087861;191;POINT (37.51910841 55.83087861);green
96;167;Коптевский рынок;37.52114845;55.83208078;52;POINT (37.52114845 55.83208078);blue
97;168;Роддом № 27;37.52758635;55.83028842;52;POINT (37.52758635 55.83028842);blue
98;169;Метро «Петровско-Разумовская»;37.57571844;55.8372403;198;POINT (37.57571844 55.8372403);green
99;170;К/т «Комсомолец»;37.57029254;55.84221842;279;POINT (37.57029254 55.84221842);yellow
100;171;Нижн. Лихоборы;37.56848803;55.84699926;279;POINT (37.56848803 55.84699926);yellow
101;172;7-й автобусный парк;37.5655145;55.85171839;110;POINT (37.5655145 55.85171839);green
102;173;Торговый центр;37.5616735836;55.8628546051;60;POINT (37.5616735836 55.8628546051);blue
103;174;Бескудниковский пер.;37.56012464;55.86490713;60;POINT (37.56012464 55.86490713);blue
104;175;Рогачевский пер.;37.55664809;55.86932066;60;POINT (37.55664809 55.86932066);blue
105;176;Школа № 656;37.55392499;55.8726825;60;POINT (37.55392499 55.8726825);blue
106;177;Аптека;37.5508956;55.87378923;60;POINT (37.5508956 55.87378923);blue
107;178;Бескудниково;37.5464019242;55.873837739;296;POINT (37.5464019242 55.873837739);yellow
108;179;Муз. школа;37.54269997;55.87363021;296;POINT (37.54269997 55.87363021);yellow
109;180;Ин-т Микрохирургии глаза;37.53715086;55.87348554;296;POINT (37.53715086 55.87348554);yellow
110;181;Коровинское ш.;37.51779428;55.88348784;293;POINT (37.51779428 55.88348784);yellow
111;182;Кронштадтский бульв.;37.49676253;55.84295524;302;POINT (37.49676253 55.84295524);orange
112;183;Гимназия № 1583;37.50020429;55.84380494;256;POINT (37.50020429 55.84380494);yellow
113;191;Кадетский корпус полиции;37.54363761;55.84249732;37;POINT (37.54363761 55.84249732);blue
114;193;Митинская ул., 48;37.35496588;55.84954574;73;POINT (37.35496588 55.84954574);blue
115;194;4-й Новомихалковский пр. - Поликлиника № 159;37.54506468;55.84075235;47;POINT (37.54506468 55.84075235);blue
116;195;Кадетский корпус полиции;37.54341964;55.84320609;47;POINT (37.54341964 55.84320609);blue
117;200;3-й Лихачевский пер.;37.52091766;55.84831504;256;POINT (37.52091766 55.84831504);yellow
118;203;Гимназия № 1583;37.49912551;55.84370335;383;POINT (37.49912551 55.84370335);orange
119;204;Кронштадтский бульв.;37.49584482;55.84289574;383;POINT (37.49584482 55.84289574);orange
120;206;Ул. Дыбенко, 6;37.48465472;55.86851809;148;POINT (37.48465472 55.86851809);green
121;208;Интернат;37.46855178;55.87346894;369;POINT (37.46855178 55.87346894);orange
122;209;11-й автобусный парк - Киностудия;37.47087508;55.87122038;369;POINT (37.47087508 55.87122038);orange
123;210;Смольная ул., 61;37.47291097;55.86924721;369;POINT (37.47291097 55.86924721);orange
124;211;Метро «Беломорская»;37.47593628;55.86632944;369;POINT (37.47593628 55.86632944);orange
125;212;Смольная ул.;37.48635788;55.85832994;401;POINT (37.48635788 55.85832994);pink
126;213;Фестивальная ул., 14;37.49617308;55.86018085;299;POINT (37.49617308 55.86018085);yellow
127;214;Фестивальная ул., 65;37.50113583;55.8609953;299;POINT (37.50113583 55.8609953);yellow
128;216;Фестивальная ул.;37.50360878;55.86189364;73;POINT (37.50360878 55.86189364);blue
129;217;Фестивальная ул., 14;37.49502105;55.86023665;73;POINT (37.49502105 55.86023665);blue
130;218;Метро «Беломорская»;37.47572273;55.86691808;354;POINT (37.47572273 55.86691808);orange
131;219;Смольная ул., 61;37.47250317;55.87006376;354;POINT (37.47250317 55.87006376);orange
132;220;11-й автобусный парк - Киностудия;37.47042618;55.87205598;354;POINT (37.47042618 55.87205598);orange
133;222;Фестивальная ул.;37.50674921;55.86280819;367;POINT (37.50674921 55.86280819);orange
134;225;Зеленоградская ул., 21;37.4973747726;55.873851468;253;POINT (37.4973747726 55.873851468);yellow
135;226;Почта;37.49362797;55.8755477;253;POINT (37.49362797 55.8755477);yellow
136;227;Зеленоградская ул., 39;37.4892187714;55.8773550191;253;POINT (37.4892187714 55.8773550191);yellow
137;228;Зеленоградская ул., 39;37.4898772949;55.8768615866;28;POINT (37.4898772949 55.8768615866);blue
138;229;Почта;37.49462501;55.87495346;28;POINT (37.49462501 55.87495346);blue
139;230;Зеленоградская ул., 21;37.4983597251;55.8729727395;28;POINT (37.4983597251 55.8729727395);blue
140;232;Б-ца - Библиотека им. Короленко;37.50768663;55.8636384;142;POINT (37.50768663 55.8636384);green
141;233;Фестивальная ул., 65;37.49975463;55.86101472;73;POINT (37.49975463 55.86101472);blue
142;242;2-й Балтийский пер.;37.52396967;55.80644299;96;POINT (37.52396967 55.80644299);blue
143;243;Ленинградский рынок - К/т «Баку»;37.52821794;55.80531741;96;POINT (37.52821794 55.80531741);blue
144;246;Петровско-Разумовская ал.;37.55895913;55.79487824;750;POINT (37.55895913 55.79487824);red
145;249;Ленинградский рынок - К/т «Баку»;37.52945405;55.80877473;96;POINT (37.52945405 55.80877473);blue
146;250;Российская открытая академия транспорта;37.52573767;55.80972867;96;POINT (37.52573767 55.80972867);blue
147;251;1-й Балтийский пер.;37.5202407;55.81113993;96;POINT (37.5202407 55.81113993);blue
148;260;Пулковская ул.;37.48944038;55.84632385;114;POINT (37.48944038 55.84632385);green
149;261;Флотская ул., 36;37.49234418;55.85079102;114;POINT (37.49234418 55.85079102);green
150;262;Поликлиника;37.50108072;55.85399188;114;POINT (37.50108072 55.85399188);green
151;263;Школа № 648;37.50383408;55.8549718;114;POINT (37.50383408 55.8549718);green
152;264;Флотская ул.;37.50949264;55.85700257;114;POINT (37.50949264 55.85700257);green
153;269;Флотская ул.;37.50859495;55.85691524;114;POINT (37.50859495 55.85691524);green
154;270;Поликлиника;37.50178932;55.85446122;114;POINT (37.50178932 55.85446122);green
155;271;Смольная ул.;37.49462719;55.85184812;159;POINT (37.49462719 55.85184812);green
156;272;Пулковская ул.;37.48979253;55.84540275;114;POINT (37.48979253 55.84540275);green
157;273;Ин-т «Цветметавтоматика»;37.5624216962;55.8589115909;162;POINT (37.5624216962 55.8589115909);green
158;274;Метро «Верхние Лихоборы» - Северный вестибюль;37.56240004;55.85736801;60;POINT (37.56240004 55.85736801);blue
159;275;Нарвская ул. - Университет Гражданской Авиации;37.5031925;55.84459084;256;POINT (37.5031925 55.84459084);yellow
160;276;Акад. Туризма;37.51280334;55.85174733;256;POINT (37.51280334 55.85174733);yellow
161;277;Лихоборская наб.;37.5160769692;55.852666487;256;POINT (37.5160769692 55.852666487);yellow
162;280;Лихоборская наб.;37.5151294985;55.8525973596;338;POINT (37.5151294985 55.8525973596);orange
163;281;Акад. Туризма;37.51095173;55.85131969;338;POINT (37.51095173 55.85131969);orange
164;282;Нарвская ул. - Университет Гражданской Авиации;37.50317031;55.8447254;338;POINT (37.50317031 55.8447254);orange
165;283;Пр. Черепановых;37.5266201841;55.8396100803;120;POINT (37.5266201841 55.8396100803);green
166;284;Соболевский пр.;37.5301106;55.83867407;120;POINT (37.5301106 55.83867407);green
167;285;Ул. Прянишникова;37.5406501216;55.8358742113;120;POINT (37.5406501216 55.8358742113);green
168;286;Университет Печати;37.54320731;55.83519691;120;POINT (37.54320731 55.83519691);green
169;287;Тимирязевская академия;37.54993836;55.83341524;120;POINT (37.54993836 55.83341524);green
170;288;Пасечная ул.;37.55276469;55.82979983;120;POINT (37.55276469 55.82979983);green
171;289;Парк «Дубки»;37.56230019;55.81830039;120;POINT (37.56230019 55.81830039);green
172;290;50-я гор. б-ца;37.55706274;55.81245767;552;POINT (37.55706274 55.81245767);red
173;291;Пр. Соломенной Сторожки;37.56009979;55.80729184;552;POINT (37.56009979 55.80729184);red
174;292;Дмитровский пр.;37.57133003;55.80737234;480;POINT (37.57133003 55.80737234);pink
175;293;Всероссийское Общество Слепых;37.56798446;55.80496909;360;POINT (37.56798446 55.80496909);orange
176;294;2-я Хуторская ул.;37.56363184;55.80245128;360;POINT (37.56363184 55.80245128);orange
177;300;Писцовая ул.;37.56806202;55.79828331;182;POINT (37.56806202 55.79828331);green
178;301;2-я Хуторская ул.;37.56409114;55.80233029;182;POINT (37.56409114 55.80233029);green
179;302;Всероссийское Общество Слепых;37.56935149;55.80510455;182;POINT (37.56935149 55.80510455);green
180;303;Дмитровский пр.;37.57049117;55.80882552;400;POINT (37.57049117 55.80882552);pink
181;304;50-я гор. б-ца;37.55786267;55.81167022;423;POINT (37.55786267 55.81167022);pink
182;305;Парк «Дубки»;37.56165453;55.81949598;495;POINT (37.56165453 55.81949598);pink
183;306;Красностуденческий пр.;37.55898612;55.82271493;131;POINT (37.55898612 55.82271493);green
184;307;Пасечная ул.;37.5525004;55.83051264;131;POINT (37.5525004 55.83051264);green
185;308;Тимирязевская академия;37.55004232;55.83375504;131;POINT (37.55004232 55.83375504);green
186;309;Университет Печати;37.54191519;55.83571746;131;POINT (37.54191519 55.83571746);green
187;310;Б. Академическая ул.;37.53760115;55.83686083;131;POINT (37.53760115 55.83686083);green
188;311;Пр. Черепановых;37.52668729;55.83977396;131;POINT (37.52668729 55.83977396);green
189;314;Пр. Соломенной Сторожки;37.56000307;55.80805865;423;POINT (37.56000307 55.80805865);pink
190;315;Ижорская ул.;37.5100582542;55.8887608432;366;POINT (37.5100582542 55.8887608432);orange
191;316;Бусиново;37.496070963;55.8817612874;219;POINT (37.496070963 55.8817612874);yellow
192;317;Краснополянская ул.;37.4880378105;55.8846550366;219;POINT (37.4880378105 55.8846550366);yellow
193;318;Ижорская ул., 6;37.501370277;55.8825159198;399;POINT (37.501370277 55.8825159198);orange
194;319;Ул. Марш. Федоренко;37.48590023;55.88337571;149;POINT (37.48590023 55.88337571);green
195;320;Краснополянская ул.;37.48950949;55.88501834;149;POINT (37.48950949 55.88501834);green
196;321;Ул. Бусиновская Горка;37.493061;55.88546893;149;POINT (37.493061 55.88546893);green
197;323;Ижорская ул., 6;37.50083838;55.88171538;329;POINT (37.50083838 55.88171538);orange
198;324;Рыбокомбинат;37.5048412609;55.8849515631;329;POINT (37.5048412609 55.8849515631);orange
199;325;Ижорская ул.;37.51065136;55.88870379;329;POINT (37.51065136 55.88870379);orange
200;326;15-й таксомоторный парк;37.48480428;55.86634844;361;POINT (37.48480428 55.86634844);orange
201;328;К/т «Волга»;37.5424934335;55.8885827221;293;POINT (37.5424934335 55.8885827221);yellow
202;333;Селигерская ул.;37.54670927;55.86904594;94;POINT (37.54670927 55.86904594);blue
203;337;Нижн. Лихоборы;37.56835312;55.84736639;149;POINT (37.56835312 55.84736639);green
204;340;434-е отделение связи;37.5730144028;55.8215652721;542;POINT (37.5730144028 55.8215652721);red
205;356;К/т «Комсомолец»;37.56996508;55.84105487;94;POINT (37.56996508 55.84105487);blue
206;357;Нижн. Лихоборы;37.56732208;55.84729349;401;POINT (37.56732208 55.84729349);pink
207;358;7-й автобусный парк;37.56590713;55.85030802;477;POINT (37.56590713 55.85030802);pink
208;368;Лианозовский элмех. з-д;37.54350786;55.89139449;403;POINT (37.54350786 55.89139449);pink
209;369;Дмитровское ш., 29;37.57316534;55.82945197;110;POINT (37.57316534 55.82945197);green
210;370;Ул. Марш. Федоренко;37.48677795;55.88401518;219;POINT (37.48677795 55.88401518);yellow
211;375;Пехотная ул.;37.48238529;55.81133819;649;POINT (37.48238529 55.81133819);red
212;378;Ул. Серегина;37.54485023;55.79420677;460;POINT (37.54485023 55.79420677);pink
213;379;Путевой дворец;37.54849025;55.79263254;256;POINT (37.54849025 55.79263254);yellow
214;380;Метро «Динамо» (южный вход);37.55983741;55.78758071;88;POINT (37.55983741 55.78758071);blue
215;381;Белорусский вокзал;37.57900682;55.77879349;88;POINT (37.57900682 55.77879349);blue
216;384;Метро «Динамо» (южный вход);37.5593912553207;55.7889163076806;88;POINT (37.5593912553207 55.7889163076806);blue
217;385;Путевой дворец;37.55239291;55.79195895;88;POINT (37.55239291 55.79195895);blue
218;386;Ул. Серегина;37.54602831;55.79485212;460;POINT (37.54602831 55.79485212);pink
219;387;МАДИ - Финансовый университет;37.52963278;55.80157684;460;POINT (37.52963278 55.80157684);pink
220;388;Гидропроект;37.501916;55.80797638;649;POINT (37.501916 55.80797638);red
221;389;Авиационный ин-т;37.49750362;55.80877639;649;POINT (37.49750362 55.80877639);red
222;390;Пехотная ул.;37.48249108;55.81162182;649;POINT (37.48249108 55.81162182);red
223;391;Ст. МЦД Покровское-Стрешнево;37.47760713;55.81259566;649;POINT (37.47760713 55.81259566);red
224;393;Покровское-Глебово;37.46984766;55.81533781;264;POINT (37.46984766 55.81533781);yellow
225;395;Дмитровское ш., 29;37.57256476;55.82852464;110;POINT (37.57256476 55.82852464);green
226;396;Метро «Тимирязевская»;37.5746407233;55.818464922;614;POINT (37.5746407233 55.818464922);red
227;399;К/т «Рига»;37.58436933;55.84458929;228;POINT (37.58436933 55.84458929);yellow
228;400;Главный вход Ботанического сада;37.58570115;55.84262896;228;POINT (37.58570115 55.84262896);yellow
229;401;Ботаническая ул., 33;37.58858337;55.8402493;228;POINT (37.58858337 55.8402493);yellow
230;402;Ул. Акад. Комарова;37.60107644;55.82945279;31;POINT (37.60107644 55.82945279);blue
231;403;Ул. Кашенкин Луг;37.60214656;55.82440347;31;POINT (37.60214656 55.82440347);blue
232;404;Телецентр;37.60417904;55.8213684;429;POINT (37.60417904 55.8213684);pink
233;405;Останкинский пруд;37.6124959144498;55.8213580592398;429;POINT (37.6124959144498 55.8213580592398);pink
234;406;Экскурсионный корпус телебашни;37.61738366;55.81684894;215;POINT (37.61738366 55.81684894);yellow
235;407;2-я Новоостанкинская ул.;37.61817974;55.81377029;215;POINT (37.61817974 55.81377029);yellow
236;408;Калибровская ул.;37.62109899;55.8118695;215;POINT (37.62109899 55.8118695);yellow
237;409;Звездный бульв.;37.62836544;55.8131772;30;POINT (37.62836544 55.8131772);blue
238;410;6-й Новоостанкинский пр.;37.63212149;55.81555838;30;POINT (37.63212149 55.81555838);blue
239;411;Ул. Цандера;37.6306705;55.81782669;30;POINT (37.6306705 55.81782669);blue
240;412;Ул. Кондратюка;37.6332174;55.81891731;30;POINT (37.6332174 55.81891731);blue
241;414;Ул. Акад. Королева;37.61655979;55.8208519;215;POINT (37.61655979 55.8208519);yellow
242;417;Метро «Алексеевская»;37.6369606;55.80911616;184;POINT (37.6369606 55.80911616);green
243;418;Новоалексеевская ул.;37.63619726;55.80497185;185;POINT (37.63619726 55.80497185);green
244;421;Новоалексеевская ул.;37.63705024;55.80523391;180;POINT (37.63705024 55.80523391);green
245;422;Метро «Алексеевская»;37.63778119;55.80921754;292;POINT (37.63778119 55.80921754);yellow
246;423;Староалексеевская ул.;37.63791977;55.81102634;292;POINT (37.63791977 55.81102634);yellow
247;428;Ул. Цандера;37.63044273;55.81805839;31;POINT (37.63044273 55.81805839);blue
248;429;Звездный бульв.;37.62537543;55.81365254;31;POINT (37.62537543 55.81365254);blue
249;430;Калибровская ул.;37.6207442838679;55.8128753495232;216;POINT (37.6207442838679 55.8128753495232);yellow
250;431;2-я Новоостанкинская ул.;37.61829629;55.81449523;31;POINT (37.61829629 55.81449523);blue
251;432;Экскурсионный корпус телебашни;37.6175586;55.81747325;31;POINT (37.6175586 55.81747325);blue
252;433;Ул. Акад. Королева;37.6159211;55.82169934;411;POINT (37.6159211 55.82169934);pink
253;434;Останкинский пруд;37.61176015;55.82175066;417;POINT (37.61176015 55.82175066);pink
254;435;Телецентр;37.6045616010601;55.821768006157;417;POINT (37.6045616010601 55.821768006157);pink
255;436;Ул. Кашенкин Луг;37.60226796;55.82540749;42;POINT (37.60226796 55.82540749);blue
256;437;Ул. Акад. Комарова;37.60091971;55.83057072;229;POINT (37.60091971 55.83057072);yellow
257;438;6-й Новоостанкинский пр.;37.62955712;55.81531701;31;POINT (37.62955712 55.81531701);blue
258;439;Гост. «Останкино»;37.59582389;55.83328234;229;POINT (37.59582389 55.83328234);yellow
259;440;Ботаническая ул., 33;37.58931158;55.83973132;229;POINT (37.58931158 55.83973132);yellow
260;441;Главный вход Ботанического сада;37.58667168;55.84383853;229;POINT (37.58667168 55.84383853);yellow
261;458;Гидропроект;37.50777509;55.80633514;649;POINT (37.50777509 55.80633514);red
262;459;Пищевой ин-т;37.49955887;55.80789141;649;POINT (37.49955887 55.80789141);red
263;472;Талдомская ул.;37.52718211;55.87431805;353;POINT (37.52718211 55.87431805);orange
264;474;Ул. Марш. Федоренко, 2;37.4932742244;55.8792672896;180;POINT (37.4932742244 55.8792672896);green
265;475;Универсам;37.4900247832;55.8807692539;180;POINT (37.4900247832 55.8807692539);green
266;476;Универсам;37.49035409;55.88030592;180;POINT (37.49035409 55.88030592);green
267;477;Ул. Марш. Федоренко, 2;37.49303071;55.87908674;180;POINT (37.49303071 55.87908674);green
268;478;Бусиново;37.49698687;55.88144854;180;POINT (37.49698687 55.88144854);green
269;482;Новодевичье кладб.;37.556850629;55.7241935088;100;POINT (37.556850629 55.7241935088);green
270;483;Абрикосовский пер.;37.56651048;55.72973922;100;POINT (37.56651048 55.72973922);green
271;510;Трубецкая ул.;37.56948498;55.73128969;132;POINT (37.56948498 55.73128969);green
272;511;Абрикосовский пер.;37.56416751;55.72896076;132;POINT (37.56416751 55.72896076);green
273;512;Новодевичье кладб.;37.55592289;55.72358305;132;POINT (37.55592289 55.72358305);green
274;518;Ст. МЦД Окружная;37.57612496;55.8478689;55;POINT (37.57612496 55.8478689);blue
275;519;Ин-т Стройфизики;37.57426183;55.84433844;55;POINT (37.57426183 55.84433844);blue
276;522;Красностуденческий пр.;37.55848199;55.82290416;120;POINT (37.55848199 55.82290416);green
277;523;Тимирязевская ул., 30;37.5606587218;55.8202896915;120;POINT (37.5606587218 55.8202896915);green
278;525;Театр «Золотое кольцо»;37.5684116691;55.8108765768;480;POINT (37.5684116691 55.8108765768);pink
279;526;Плодоовощная база;37.51516239;55.88564426;291;POINT (37.51516239 55.88564426);yellow
280;527;Плодоовощная база;37.51491677;55.8862894;293;POINT (37.51491677 55.8862894);yellow
281;529;Ул. Берзарина, 32;37.47316811;55.78886456;150;POINT (37.47316811 55.78886456);green
282;530;Ин-т Приборостроения;37.48240018;55.79117184;150;POINT (37.48240018 55.79117184);green
283;531;Управа района Щукино;37.4833339;55.79480318;150;POINT (37.4833339 55.79480318);green
284;532;Поликлиника;37.4844579;55.79772467;150;POINT (37.4844579 55.79772467);green
285;533;Поликлиника;37.48397939;55.79786336;150;POINT (37.48397939 55.79786336);green
286;534;Управа района Щукино;37.48308279;55.79458376;150;POINT (37.48308279 55.79458376);green
287;535;Ин-т Приборостроения;37.48178342;55.79096481;150;POINT (37.48178342 55.79096481);green
288;536;Ул. Берзарина, 32;37.4721979978;55.7891184452;150;POINT (37.4721979978 55.7891184452);green
289;537;Авангардная ул., 15;37.48932003;55.84871348;114;POINT (37.48932003 55.84871348);green
290;538;Авангардная ул., 15;37.48872132;55.84799445;114;POINT (37.48872132 55.84799445);green
291;541;Канал им. Москвы;37.4470809538;55.8213916453;385;POINT (37.4470809538 55.8213916453);orange
292;542;Клуб им. Чкалова;37.44156946;55.82270276;385;POINT (37.44156946 55.82270276);orange
293;543;Сходненский тупик;37.426036757;55.8265091918;385;POINT (37.426036757 55.8265091918);orange
294;544;15-й автобусный парк;37.41597457;55.8286636;385;POINT (37.41597457 55.8286636);orange
295;545;Акад. Коммунального хоз-ва;37.41287638;55.8292762;385;POINT (37.41287638 55.8292762);orange
296;546;Храм Сергия Радонежского;37.4056934898;55.8360925204;189;POINT (37.4056934898 55.8360925204);green
297;547;Спортшкола;37.40871609;55.83869542;189;POINT (37.40871609 55.83869542);green
298;548;Школа № 821;37.4041136399;55.8460215493;189;POINT (37.4041136399 55.8460215493);green
299;549;Детская б-ца;37.40775714;55.85288588;189;POINT (37.40775714 55.85288588);green
300;553;НИИАТ;37.4096491704;55.8554514948;189;POINT (37.4096491704 55.8554514948);green
301;554;Детская б-ца;37.4069911365;55.852194739;189;POINT (37.4069911365 55.852194739);green
302;555;Школа № 821;37.4036741876;55.8451508549;189;POINT (37.4036741876 55.8451508549);green
303;556;Спортшкола;37.40779409;55.83860966;189;POINT (37.40779409 55.83860966);green
304;557;Храм Сергия Радонежского;37.40498828;55.83498991;189;POINT (37.40498828 55.83498991);green
305;558;Акад. Коммунального хоз-ва;37.41297155;55.82883752;385;POINT (37.41297155 55.82883752);orange
306;559;15-й автобусный парк;37.41574481;55.82831896;385;POINT (37.41574481 55.82831896);orange
307;560;Сходненский тупик;37.42548966;55.82620278;385;POINT (37.42548966 55.82620278);orange
308;561;Клуб им. Чкалова;37.44004068;55.82264714;385;POINT (37.44004068 55.82264714);orange
309;562;Канал им. Москвы;37.4468833;55.82081957;385;POINT (37.4468833 55.82081957);orange
310;575;К/т «Прага»;37.57953903;55.79156181;87;POINT (37.57953903 55.79156181);blue
311;576;Вятская ул.;37.58286369;55.79173869;87;POINT (37.58286369 55.79173869);blue
312;580;Театр «Золотое кольцо»;37.5679317249;55.8118896649;72;POINT (37.5679317249 55.8118896649);blue
313;581;Префектура САО;37.56497722;55.81555686;72;POINT (37.56497722 55.81555686);blue
314;582;Красностуденческий пр., 4;37.56555445;55.82485209;364;POINT (37.56555445 55.82485209);orange
315;583;Метро «Окружная»;37.57272152;55.84673184;55;POINT (37.57272152 55.84673184);blue
316;584;3-й мкр. Строгина;37.40691689;55.815082;106;POINT (37.40691689 55.815082);green
317;585;Ал. Дорога Жизни;37.4175948;55.80721429;106;POINT (37.4175948 55.80721429);green
318;589;Черепково;37.38276314;55.76352583;285;POINT (37.38276314 55.76352583);yellow
319;590;ЦКБ;37.39591586;55.75710953;285;POINT (37.39591586 55.75710953);yellow
320;593;ЦКБ;37.3953001959;55.7580900257;116;POINT (37.3953001959 55.7580900257);green
321;594;Черепково;37.3832414;55.76383631;116;POINT (37.3832414 55.76383631);green
322;597;Строгинский бульв.;37.39362212;55.8045034;182;POINT (37.39362212 55.8045034);green
323;601;Ал. Дорога Жизни;37.41839955;55.80791776;106;POINT (37.41839955 55.80791776);green
324;602;3-й мкр. Строгина;37.40639641;55.81579666;106;POINT (37.40639641 55.81579666);green
325;603;2-я Хуторская ул.;37.57298455;55.80517985;120;POINT (37.57298455 55.80517985);green
326;604;1-я Хуторская ул.;37.57435139;55.80275398;120;POINT (37.57435139 55.80275398);green
327;607;Бутырская ул.;37.58274548;55.79534376;87;POINT (37.58274548 55.79534376);blue
328;609;К/т «Прага»;37.57867474;55.79214116;87;POINT (37.57867474 55.79214116);blue
329;610;4-й Вятский пер.;37.57552723;55.80119461;131;POINT (37.57552723 55.80119461);green
330;612;Знаменский храм;37.6386957922;55.7914879882;1;POINT (37.6386957922 55.7914879882);blue
331;614;Рижский вокзал;37.63292423;55.79257937;265;POINT (37.63292423 55.79257937);yellow
332;620;Вятская ул.;37.58201742;55.79236001;87;POINT (37.58201742 55.79236001);blue
333;622;4-й Вятский пер.;37.57477297;55.80082119;120;POINT (37.57477297 55.80082119);green
334;623;Полтавская ул. - Пенсионный фонд;37.57165224;55.80056848;120;POINT (37.57165224 55.80056848);green
335;624;Перинатальный центр;37.56708661;55.80008771;120;POINT (37.56708661 55.80008771);green
336;625;Поликлиника;37.56272232;55.80105082;120;POINT (37.56272232 55.80105082);green
337;626;Ул. Верхн. Масловка;37.55656948;55.79911254;120;POINT (37.55656948 55.79911254);green
338;627;Планетная ул.;37.55490375;55.79732799;120;POINT (37.55490375 55.79732799);green
339;633;Метро «Динамо»;37.55617372;55.7903361;168;POINT (37.55617372 55.7903361);green
340;637;Ул. Верхн. Масловка;37.55803944;55.79942257;131;POINT (37.55803944 55.79942257);green
341;638;Поликлиника;37.56382951;55.80123862;131;POINT (37.56382951 55.80123862);green
342;648;Туристская ул.;37.42222475;55.84897708;101;POINT (37.42222475 55.84897708);green
343;649;Аэродромная ул.;37.43308739;55.84982611;101;POINT (37.43308739 55.84982611);green
344;669;Метро «Сходненская»;37.43711785;55.85057382;101;POINT (37.43711785 55.85057382);green
345;670;Аэродромная ул.;37.43130505;55.84995573;101;POINT (37.43130505 55.84995573);green
346;671;Бульв. Яна Райниса, 10;37.42668909;55.84941971;101;POINT (37.42668909 55.84941971);green
347;726;Международный центр научно-технической информации;37.51056967;55.79031449;168;POINT (37.51056967 55.79031449);green
348;730;Кадетский корпус;37.46644221;55.7850243;32;POINT (37.46644221 55.7850243);blue
349;731;Детский центр;37.4795759921;55.7830005547;38;POINT (37.4795759921 55.7830005547);blue
350;732;Ин-т Связи;37.48315537;55.78605221;600;POINT (37.48315537 55.78605221);red
351;733;Ин-т Связи;37.48213608;55.78562284;587;POINT (37.48213608 55.78562284);red
352;734;Детский центр;37.4791422909;55.7832357679;38;POINT (37.4791422909 55.7832357679);blue
353;737;Покровское-Глебово;37.46927327;55.81475259;385;POINT (37.46927327 55.81475259);orange
354;742;Карамышевская наб.;37.47619244;55.7690432;150;POINT (37.47619244 55.7690432);green
355;743;Карамышевская наб., 10;37.48360303;55.76960181;150;POINT (37.48360303 55.76960181);green
356;747;МЖК «Атом»;37.49213024;55.7727582;70;POINT (37.49213024 55.7727582);blue
357;748;Карамышевская наб., 10;37.48277866;55.76971848;150;POINT (37.48277866 55.76971848);green
358;749;Карамышевская наб.;37.47672161;55.76928973;150;POINT (37.47672161 55.76928973);green
359;750;Шлюз № 9;37.47285162;55.76899204;350;POINT (37.47285162 55.76899204);orange
360;753;Живописная ул. - Храм Живоначальной Троицы;37.45260926;55.77939303;214;POINT (37.45260926 55.77939303);yellow
361;766;Хорошевский мост;37.4500738633;55.7792135509;220;POINT (37.4500738633 55.7792135509);yellow
362;768;Метро «Народное Ополчение»;37.48493235;55.77536309;264;POINT (37.48493235 55.77536309);yellow
363;799;Метро «Ул. 1905 года»;37.55963871;55.7632663;170;POINT (37.55963871 55.7632663);green
364;822;Ул. Марш. Федоренко;37.4859994067;55.8829424802;180;POINT (37.4859994067 55.8829424802);green
365;823;Ул. Марш. Федоренко;37.48696196;55.8820209;180;POINT (37.48696196 55.8820209);green
366;825;Просп. Марш. Жукова;37.47699486;55.77332188;76;POINT (37.47699486 55.77332188);blue
367;828;Ул. Демьяна Бедного;37.48909127;55.7757703;214;POINT (37.48909127 55.7757703);yellow
368;843;Северный речной порт;37.46954882;55.85685872;73;POINT (37.46954882 55.85685872);blue
369;845;Прибрежный пр.;37.46053107;55.87095294;114;POINT (37.46053107 55.87095294);green
370;860;Прибрежный пр.;37.45902088;55.86946694;114;POINT (37.45902088 55.86946694);green
371;861;Канал им. Москвы;37.46136109;55.86758488;186;POINT (37.46136109 55.86758488);green
372;877;Песчаная пл.;37.50969493;55.793676;168;POINT (37.50969493 55.793676);green
373;878;Метро «Полежаевская»;37.51713991;55.77777275;214;POINT (37.51713991 55.77777275);yellow
374;879;Ул. Демьяна Бедного;37.48908221;55.7755565;264;POINT (37.48908221 55.7755565);yellow
375;883;Анадырский пр., 57 - Колледж современных технологий;37.70609799;55.87776024;84;POINT (37.70609799 55.87776024);blue
376;885;Изумрудная ул.;37.69245938;55.87786008;160;POINT (37.69245938 55.87786008);green
377;886;Минусинская ул.;37.68909874;55.87494247;161;POINT (37.68909874 55.87494247);green
378;887;Янтарный пр.;37.69224506;55.8725505;84;POINT (37.69224506 55.8725505);blue
379;888;Библиотека;37.6895596249;55.8707846926;84;POINT (37.6895596249 55.8707846926);blue
380;889;Шушенская ул.;37.68619894;55.868597;84;POINT (37.68619894 55.868597);blue
381;893;Снежная ул.;37.64289462;55.84681352;155;POINT (37.64289462 55.84681352);green
382;899;Бабушкинский парк;37.68252771;55.86597188;72;POINT (37.68252771 55.86597188);blue
383;900;Шушенская ул.;37.68727555;55.86902469;72;POINT (37.68727555 55.86902469);blue
384;901;Библиотека;37.69018745;55.87093338;72;POINT (37.69018745 55.87093338);blue
385;906;Анадырский пр., 57 - Колледж современных технологий;37.70750378;55.87846005;72;POINT (37.70750378 55.87846005);blue
386;912;Радиоклуб;37.42283475;55.84231319;15;POINT (37.42283475 55.84231319);blue
387;913;Походный пр., 15;37.41718804;55.838803;15;POINT (37.41718804 55.838803);blue
388;914;13-й мкр. Тушина;37.41867081;55.83683659;101;POINT (37.41867081 55.83683659);green
389;915;Походный пр.;37.41387721;55.83608399;101;POINT (37.41387721 55.83608399);green
390;916;Пр. Донелайтиса, 12;37.41506883;55.83836321;101;POINT (37.41506883 55.83836321);green
391;917;Детский сад;37.41679309;55.84043826;101;POINT (37.41679309 55.84043826);green
392;918;Пр. Донелайтиса;37.42034089;55.84372905;101;POINT (37.42034089 55.84372905);green
393;920;Нелидовская ул.;37.43961666;55.84572958;13;POINT (37.43961666 55.84572958);blue
394;936;Платф. Петровско-Разумовская;37.56821557;55.8406967;439;POINT (37.56821557 55.8406967);pink
395;937;Мост Октябрьской ж.д.;37.556921;55.84355952;396;POINT (37.556921 55.84355952);orange
396;938;Ул. Лихоборские Бугры;37.54755634;55.8400677;396;POINT (37.54755634 55.8400677);orange
397;939;Ул. Зои и Александра Космодемьянских;37.52981858;55.82692614;386;POINT (37.52981858 55.82692614);orange
398;940;Ул. Зои и Александра Космодемьянских, 35;37.52536093;55.82484883;205;POINT (37.52536093 55.82484883);yellow
399;941;Метро «Войковская»;37.50000643;55.81720911;144;POINT (37.50000643 55.81720911);green
400;942;Ул. Зои и Александра Космодемьянских;37.53025209;55.82680842;392;POINT (37.53025209 55.82680842);orange
401;943;Ул. Лихоборские Бугры;37.54901216;55.84017253;397;POINT (37.54901216 55.84017253);orange
402;944;Мост Октябрьской ж.д.;37.55697559;55.84329043;397;POINT (37.55697559 55.84329043);orange
403;945;Платф. Петровско-Разумовская;37.56904674;55.83983429;458;POINT (37.56904674 55.83983429);pink
404;947;Ул. Ивана Сусанина;37.5309916226;55.8716707577;332;POINT (37.5309916226 55.8716707577);orange
405;948;Ул. Ивана Сусанина;37.5302135484;55.8726189531;331;POINT (37.5302135484 55.8726189531);orange
406;949;Ул. Клары Цеткин;37.51405146;55.82726349;191;POINT (37.51405146 55.82726349);green
407;951;Ул. Клары Цеткин;37.51197412;55.82692711;183;POINT (37.51197412 55.82692711);green
408;952;Метро «Войковская»;37.49904552;55.82066869;47;POINT (37.49904552 55.82066869);blue
409;953;Ул. Софьи Ковалевской;37.53377411;55.87554347;288;POINT (37.53377411 55.87554347);yellow
410;954;Метро «Водный Стадион»;37.48656513;55.8400787;120;POINT (37.48656513 55.8400787);green
411;955;Пенягинская ул.;37.3517110594;55.8385695827;268;POINT (37.3517110594 55.8385695827);yellow
412;957;Ул. Лавочкина;37.4880449241;55.8603105288;148;POINT (37.4880449241 55.8603105288);green
413;958;Ул. Лавочкина, 54;37.48599378;55.86413074;148;POINT (37.48599378 55.86413074);green
414;959;Ул. Дыбенко, 16;37.48369048;55.87188264;148;POINT (37.48369048 55.87188264);green
415;960;Ул. Дыбенко, 28;37.48308009;55.87398254;148;POINT (37.48308009 55.87398254);green
416;961;Метро «Речной вокзал»;37.47765987;55.85557424;830;POINT (37.47765987 55.85557424);red
417;962;Ул. Дыбенко, 28;37.48273018;55.87321304;361;POINT (37.48273018 55.87321304);orange
418;963;Ул. Дыбенко, 16;37.48347959;55.87074044;361;POINT (37.48347959 55.87074044);orange
419;964;Ул. Лавочкина, 54;37.48574927;55.86313393;433;POINT (37.48574927 55.86313393);pink
420;965;Ул. Лавочкина;37.48819658;55.85962424;433;POINT (37.48819658 55.85962424);pink
421;966;Метро «Речной вокзал»;37.47681714;55.85480011;253;POINT (37.47681714 55.85480011);yellow
422;967;Ул. Лавочкина;37.49154748;55.85945274;253;POINT (37.49154748 55.85945274);yellow
423;972;Ул. Лавочкина;37.49005234;55.85941602;28;POINT (37.49005234 55.85941602);blue
424;977;Ул. Марш. Конева;37.4889853;55.79567203;404;POINT (37.4889853 55.79567203);pink
425;979;К/т «Юность»;37.49688573;55.79537896;756;POINT (37.49688573 55.79537896);red
426;980;Ул. Левитана;37.50534398;55.80022845;1186;POINT (37.50534398 55.80022845);red
427;981;Ул. Алабяна;37.50789427;55.80202738;972;POINT (37.50789427 55.80202738);red
428;983;Ул. Усиевича;37.53504676;55.80412985;96;POINT (37.53504676 55.80412985);blue
429;984;Ул. Черняховского;37.53852721;55.80616997;96;POINT (37.53852721 55.80616997);blue
430;988;Ул. Акад. Ильюшина;37.54201025;55.80499526;96;POINT (37.54201025 55.80499526);blue
431;989;Ул. Черняховского;37.53737245;55.80668856;96;POINT (37.53737245 55.80668856);blue
432;990;Ул. Алабяна;37.50817902;55.80347413;972;POINT (37.50817902 55.80347413);red
433;991;К/т «Юность»;37.49503602;55.79468617;758;POINT (37.49503602 55.79468617);red
434;993;Ул. Марш. Конева;37.48866963;55.79613098;402;POINT (37.48866963 55.79613098);pink
435;998;Метро «Водный Стадион»;37.48665918;55.83994014;46;POINT (37.48665918 55.83994014);blue
436;999;Ул. Лавочкина - Дворец спорта «Динамо»;37.49892853;55.85318378;160;POINT (37.49892853 55.85318378);green
437;1000;Ул. Лавочкина - Дворец спорта «Динамо»;37.49793638;55.85305364;159;POINT (37.49793638 55.85305364);green
438;1002;Ул. Лавочкина;37.50730888;55.84860152;256;POINT (37.50730888 55.84860152);yellow
439;1004;Ул. Лавочкина;37.50659189;55.8481679;338;POINT (37.50659189 55.8481679);orange
440;1005;Метро «Водный Стадион»;37.48720047;55.8406873;497;POINT (37.48720047 55.8406873);pink
441;1007;Метро «Сокол»;37.51506461;55.80451909;460;POINT (37.51506461 55.80451909);pink
442;1008;Пл. Марины Расковой;37.51956515;55.80328155;460;POINT (37.51956515 55.80328155);pink
443;1009;Ул. Лизы Чайкиной;37.52599006;55.8016488;460;POINT (37.52599006 55.8016488);pink
444;1010;Метро «Аэропорт» (сев.) - Финансовый университет;37.52920697;55.8008287;460;POINT (37.52920697 55.8008287);pink
445;1011;Спортивный комплекс «ЦСКА»;37.53983798;55.79642625;460;POINT (37.53983798 55.79642625);pink
446;1012;Отель «Советский» - Театр »Ромэн»;37.56685776;55.78438943;88;POINT (37.56685776 55.78438943);blue
447;1013;Ул. Правды;37.57375824;55.78122116;88;POINT (37.57375824 55.78122116);blue
448;1016;Ленинградский просп., 26;37.57242764;55.78305097;88;POINT (37.57242764 55.78305097);blue
449;1017;Отель «Советский» - Театр »Ромэн»;37.56772582;55.78523753;88;POINT (37.56772582 55.78523753);blue
450;1018;Метро «Динамо»;37.55717511;55.78989683;88;POINT (37.55717511 55.78989683);blue
451;1019;Ул. Константина Симонова;37.53929813;55.79779888;460;POINT (37.53929813 55.79779888);pink
452;1020;Метро «Аэропорт» (южн.);37.53376412;55.80024976;460;POINT (37.53376412 55.80024976);pink
453;1021;Ул. Лизы Чайкиной;37.52550812;55.80265584;460;POINT (37.52550812 55.80265584);pink
454;1022;Метро «Сокол»;37.51479437;55.8054028;196;POINT (37.51479437 55.8054028);green
455;1023;Ул. Панфилова;37.4939106252368;55.8093459814811;649;POINT (37.4939106252368 55.8093459814811);red
456;1036;Ул. Панфилова;37.49391145;55.8090459;649;POINT (37.49391145 55.8090459);red
457;1046;Метро «Петровско-Разумовская»;37.57405866;55.83667518;469;POINT (37.57405866 55.83667518);pink
458;1048;З-д ЖБИ;37.4688951475;55.7893800409;150;POINT (37.4688951475 55.7893800409);green
459;1049;Ул. Расплетина;37.48008279;55.78964384;150;POINT (37.48008279 55.78964384);green
460;1050;Метро «Октябрьское поле»;37.49160478;55.7942843;404;POINT (37.49160478 55.7942843);pink
461;1051;Метро «Сокол»;37.51333327;55.80305317;402;POINT (37.51333327 55.80305317);pink
462;1052;Метро «Октябрьское поле»;37.49178544;55.79453332;150;POINT (37.49178544 55.79453332);green
463;1053;Ул. Расплетина;37.47825784;55.78881911;150;POINT (37.47825784 55.78881911);green
464;1054;З-д ЖБИ;37.46836001;55.78965332;150;POINT (37.46836001 55.78965332);green
465;1055;Новодевичий монастырь;37.56127278;55.72743344;100;POINT (37.56127278 55.72743344);green
466;1063;Метро «Полежаевская»;37.51759349;55.77775266;150;POINT (37.51759349 55.77775266);green
467;1064;Ул. Куусинена, 9;37.51575285;55.78038552;214;POINT (37.51575285 55.78038552);yellow
468;1072;Новодевичий монастырь;37.55942301;55.72681597;132;POINT (37.55942301 55.72681597);green
469;1073;Памятник Героям войны;37.41024997;55.81274804;106;POINT (37.41024997 55.81274804);green
470;1074;Ал. Ген. Корчагина;37.41468051;55.80995014;106;POINT (37.41468051 55.80995014);green
471;1075;Ул. Марш. Катукова;37.41457968;55.80526717;188;POINT (37.41457968 55.80526717);green
472;1079;Метро «Молодежная»;37.41504782;55.74185491;555;POINT (37.41504782 55.74185491);red
473;1080;Метро «Молодежная»;37.41524856;55.7415203;397;POINT (37.41524856 55.7415203);orange
474;1081;Рубежный пр.;37.40992773;55.75139996;266;POINT (37.40992773 55.75139996);yellow
475;1086;Ул. Марш. Катукова;37.41353839;55.80505634;182;POINT (37.41353839 55.80505634);green
476;1087;Ул. Исаковского, 31;37.41679609;55.80549981;106;POINT (37.41679609 55.80549981);green
477;1088;Ал. Ген. Корчагина;37.41330982;55.81101044;106;POINT (37.41330982 55.81101044);green
478;1089;Памятник Героям войны;37.40998891;55.81328;106;POINT (37.40998891 55.81328);green
479;1092;Ул. Народного Ополчения;37.47513806;55.77583131;258;POINT (37.47513806 55.77583131);yellow
480;1093;Бульв. Ген. Карбышева;37.46707722;55.77714355;290;POINT (37.46707722 55.77714355);yellow
481;1094;Ул. Ген. Глаголева;37.45940168;55.77835033;214;POINT (37.45940168 55.77835033);yellow
482;1095;Ул. Ген. Глаголева;37.46101272;55.77746203;464;POINT (37.46101272 55.77746203);pink
483;1096;Бульв. Ген. Карбышева;37.467764806;55.7763360044;502;POINT (37.467764806 55.7763360044);red
484;1099;Поликлиника № 115;37.4888106;55.77279243;226;POINT (37.4888106 55.77279243);yellow
485;1103;Ул. Ген. Глаголева, 20;37.46289152;55.78300439;44;POINT (37.46289152 55.78300439);blue
486;1104;Ул. Марш. Тухачевского, 37;37.47041988;55.78440529;32;POINT (37.47041988 55.78440529);blue
487;1105;Ул. Марш. Тухачевского, 28;37.47489019;55.78364297;70;POINT (37.47489019 55.78364297);blue
488;1106;Ул. Берзарина;37.48674854;55.78912176;352;POINT (37.48674854 55.78912176);orange
489;1107;Ул. Марш. Вершинина;37.491088;55.79177171;352;POINT (37.491088 55.79177171);orange
490;1111;Ул. Марш. Вершинина;37.48940235;55.79127892;356;POINT (37.48940235 55.79127892);orange
491;1112;Ул. Берзарина;37.48558465;55.78896287;356;POINT (37.48558465 55.78896287);orange
492;1124;Метро «Тушинская»;37.43412978;55.8246744;385;POINT (37.43412978 55.8246744);orange
493;1126;Ул. Героев Панфиловцев, 33;37.4131714;55.85697965;189;POINT (37.4131714 55.85697965);green
494;1127;Ул. Героев Панфиловцев;37.41813851;55.857966;189;POINT (37.41813851 55.857966);green
495;1130;Ул. Героев Панфиловцев;37.41874254;55.85818575;189;POINT (37.41874254 55.85818575);green
496;1131;Ул. Героев Панфиловцев, 33;37.41204116;55.85676038;189;POINT (37.41204116 55.85676038);green
497;1133;Река Сходня;37.4221416308;55.8270129737;385;POINT (37.4221416308 55.8270129737);orange
498;1134;Метро «Тушинская»;37.43391718;55.82410524;385;POINT (37.43391718 55.82410524);orange
499;1143;Метро «Свиблово»;37.65365638;55.8557914;338;POINT (37.65365638 55.8557914);orange
500;1144;Пр. Серебрякова;37.64751863;55.84708346;155;POINT (37.64751863 55.84708346);green
501;1152;Платф. Лось;37.71077418;55.88068494;72;POINT (37.71077418 55.88068494);blue
502;1154;1-я Напрудная ул.;37.6935675;55.87979017;160;POINT (37.6935675 55.87979017);green
503;1155;Ул. Бусиновская Горка;37.49139629;55.88613934;219;POINT (37.49139629 55.88613934);yellow
504;1157;Ул. Вучетича;37.55512189;55.81629814;552;POINT (37.55512189 55.81629814);red
505;1160;Театр «Золотое кольцо»;37.56735076;55.81086363;423;POINT (37.56735076 55.81086363);pink
506;1161;Ул. Вучетича;37.55566098;55.81536556;423;POINT (37.55566098 55.81536556);pink
507;1162;Ул. Фомичевой;37.44957997;55.85994837;15;POINT (37.44957997 55.85994837);blue
508;1163;Школа № 132;37.4485164586;55.8633046674;15;POINT (37.4485164586 55.8633046674);blue
509;1164;Алешкино;37.44211671;55.86670745;15;POINT (37.44211671 55.86670745);blue
510;1165;Детская п-ка;37.43634108;55.86467913;15;POINT (37.43634108 55.86467913);blue
511;1166;Детская п-ка;37.43707263;55.86522835;13;POINT (37.43707263 55.86522835);blue
512;1167;Алешкино;37.44337056;55.86638016;13;POINT (37.44337056 55.86638016);blue
513;1168;Школа № 132;37.44835961;55.86250388;13;POINT (37.44835961 55.86250388);blue
514;1172;Сходненская ул.;37.43954002;55.84392022;10;POINT (37.43954002 55.84392022);blue
515;1173;Нелидовская ул.;37.44003535;55.84660217;10;POINT (37.44003535 55.84660217);blue
516;1174;Метро «Сходненская»;37.44051916;55.84992837;111;POINT (37.44051916 55.84992837);green
517;1177;Пр. Донелайтиса;37.4199659;55.84388358;101;POINT (37.4199659 55.84388358);green
518;1178;Детский сад;37.4154688;55.84060725;101;POINT (37.4154688 55.84060725);green
519;1179;Пр. Донелайтиса, 12;37.4143607184;55.8384782149;101;POINT (37.4143607184 55.8384782149);green
520;1180;Походный пр., 15;37.41798394;55.83895702;10;POINT (37.41798394 55.83895702);blue
521;1181;Радиоклуб;37.4232757201;55.8424661004;10;POINT (37.4232757201 55.8424661004);blue
522;1186;Ул. Софьи Ковалевской;37.53277379;55.87604804;60;POINT (37.53277379 55.87604804);blue
523;1187;Ул. Корнейчука;37.61026227;55.90215588;816;POINT (37.61026227 55.90215588);red
524;1188;Ул. Корнейчука, 24;37.6148484;55.90086832;816;POINT (37.6148484 55.90086832);red
525;1189;Поликлиника;37.61887267;55.89980319;816;POINT (37.61887267 55.89980319);red
526;1190;Дом культуры;37.62746757;55.8981311;535;POINT (37.62746757 55.8981311);red
527;1191;Почта;37.63252797;55.89568894;535;POINT (37.63252797 55.89568894);red
528;1192;Школа № 332;37.62823293;55.89371752;535;POINT (37.62823293 55.89371752);red
529;1193;Центр детского творчества;37.62302194;55.89151966;535;POINT (37.62302194 55.89151966);red
530;1194;Ул. Лескова;37.61950001;55.89160458;513;POINT (37.61950001 55.89160458);red
531;1195;Чермянский пр.;37.6362105;55.88884449;976;POINT (37.6362105 55.88884449);red
532;1196;Кожгалантерейная ф-ка;37.6418592;55.88824243;976;POINT (37.6418592 55.88824243);red
533;1197;Продмаг;37.6499749286676;55.8877148173274;1202;POINT (37.6499749286676 55.8877148173274);red
534;1200;Продмаг;37.6479347263674;55.8881150006128;1193;POINT (37.6479347263674 55.8881150006128);red
535;1201;Кожгалантерейная ф-ка;37.64362695;55.88830803;967;POINT (37.64362695 55.88830803);red
536;1202;МФЦ «Северное Медведково»;37.63955148;55.88876284;967;POINT (37.63955148 55.88876284);red
537;1203;Чермянский пр.;37.63393222;55.88936181;967;POINT (37.63393222 55.88936181);red
538;1204;Центр детского творчества;37.62452853;55.89191231;519;POINT (37.62452853 55.89191231);red
539;1205;Школа № 332;37.6288057;55.89369243;519;POINT (37.6288057 55.89369243);red
540;1206;Почта;37.63328742;55.89616656;519;POINT (37.63328742 55.89616656);red
541;1207;Дом культуры;37.6280671;55.8982148;519;POINT (37.6280671 55.8982148);red
542;1208;Поликлиника;37.61926117;55.89995091;800;POINT (37.61926117 55.89995091);red
543;1209;Ул. Корнейчука, 24;37.61339986;55.90153842;800;POINT (37.61339986 55.90153842);red
544;1210;Ул. Корнейчука;37.61131696;55.90211493;800;POINT (37.61131696 55.90211493);red
545;1215;Ст. Юных натуралистов;37.67102256;55.81907009;213;POINT (37.67102256 55.81907009);yellow
546;1216;Ин-т Иностранных языков;37.67901575;55.81715175;213;POINT (37.67901575 55.81715175);yellow
547;1217;Ростокинский пр.;37.68439978;55.8152433;213;POINT (37.68439978 55.8152433);yellow
548;1233;Ин-т Иностранных языков;37.67994891;55.81719018;190;POINT (37.67994891 55.81719018);green
549;1234;Ст. Юных натуралистов;37.67254772;55.81888767;190;POINT (37.67254772 55.81888767);green
550;1243;Пл. Ген. Жадова;37.4720039;55.80089465;254;POINT (37.4720039 55.80089465);yellow
551;1249;Пл. Ген. Жадова;37.47157453;55.80099362;252;POINT (37.47157453 55.80099362);yellow
552;1250;Пл. Акад. Курчатова;37.47518834;55.80252671;252;POINT (37.47518834 55.80252671);yellow
553;1254;Ин-т педиатрии им. Вельтищева;37.52097107;55.87278245;21;POINT (37.52097107 55.87278245);blue
554;1260;Ст. МЦД Бескудниково;37.56675885;55.88206206;110;POINT (37.56675885 55.88206206);green
555;1261;Ст. МЦД Бескудниково;37.56674523;55.88234677;110;POINT (37.56674523 55.88234677);green
556;1265;Школа им. Л.М. Доватора;37.52070083;55.87300664;23;POINT (37.52070083 55.87300664);blue
557;1266;Весенняя ул.;37.51589312;55.87317708;23;POINT (37.51589312 55.87317708);blue
558;1267;Управа района Дмитровский;37.52474448;55.88735134;72;POINT (37.52474448 55.88735134);blue
559;1268;Больница;37.52824021;55.89103667;508;POINT (37.52824021 55.89103667);red
560;1269;Лобненская ул.;37.52398649;55.89326691;508;POINT (37.52398649 55.89326691);red
561;1270;Лобненская ул.;37.52393869;55.89305665;473;POINT (37.52393869 55.89305665);pink
562;1271;Управа района Дмитровский;37.52510093;55.88801684;70;POINT (37.52510093 55.88801684);blue
563;1275;Больница;37.52922198;55.89098984;435;POINT (37.52922198 55.89098984);pink
564;1276;Клязьминская ул.;37.52976233;55.89566025;199;POINT (37.52976233 55.89566025);green
565;1277;Вагоноремонтная ул.;37.53374516;55.89816841;199;POINT (37.53374516 55.89816841);green
566;1278;Карельский бульв., 22;37.53657845;55.89624293;199;POINT (37.53657845 55.89624293);green
567;1279;Карельский бульв.;37.5364842;55.89380828;199;POINT (37.5364842 55.89380828);green
568;1280;Долгопрудная ул., 3;37.54107982;55.89355905;199;POINT (37.54107982 55.89355905);green
569;1281;Лианозовский элмех. з-д;37.5425366;55.89096294;436;POINT (37.5425366 55.89096294);pink
570;1282;Икшинская ул.;37.5425179132;55.8855644693;293;POINT (37.5425179132 55.8855644693);yellow
571;1283;Яхромская ул.;37.54402315;55.88123395;293;POINT (37.54402315 55.88123395);yellow
572;1289;Ул. 800-летия Москвы;37.54662396;55.87891395;293;POINT (37.54662396 55.87891395);yellow
573;1290;Яхромская ул.;37.54392484;55.88310761;293;POINT (37.54392484 55.88310761);yellow
574;1291;Икшинская ул.;37.5435548961;55.885496818;293;POINT (37.5435548961 55.885496818);yellow
575;1292;К/т «Волга»;37.5435346;55.88872928;293;POINT (37.5435346 55.88872928);yellow
576;1293;Долгопрудная ул., 3;37.540199414;55.8936856673;199;POINT (37.540199414 55.8936856673);green
577;1294;Клязьминская ул.;37.52955226;55.89520855;199;POINT (37.52955226 55.89520855);green
578;1295;Рыбокомбинат;37.5044076928;55.8850267909;366;POINT (37.5044076928 55.8850267909);orange
579;1296;Метро «Петровско-Разумовская»;37.57308126;55.83343991;110;POINT (37.57308126 55.83343991);green
580;1299;Просп. Марш. Жукова;37.45435013;55.77960614;44;POINT (37.45435013 55.77960614);blue
581;1300;Ул. Марш. Тухачевского, 55;37.45796404;55.78384113;76;POINT (37.45796404 55.78384113);blue
582;1302;Ул. Паршина;37.46070628;55.78949238;150;POINT (37.46070628 55.78949238);green
583;1303;Бассейн;37.45489794;55.78920927;150;POINT (37.45489794 55.78920927);green
584;1304;Ул. Берзарина;37.46458797;55.79035957;150;POINT (37.46458797 55.79035957);green
585;1306;52-я гор. б-ца;37.48263199;55.79925288;252;POINT (37.48263199 55.79925288);yellow
586;1307;Ул. Марш. Бирюзова;37.47899971;55.80115514;252;POINT (37.47899971 55.80115514);yellow
587;1310;Новощукинская ул.;37.4596815;55.8091509;254;POINT (37.4596815 55.8091509);yellow
588;1314;Пл. Акад. Курчатова;37.47754114;55.80161489;254;POINT (37.47754114 55.80161489);yellow
589;1315;Ул. Марш. Бирюзова;37.48055614;55.80006247;254;POINT (37.48055614 55.80006247);yellow
590;1316;52-я гор. б-ца;37.48382342;55.7983622;254;POINT (37.48382342 55.7983622);yellow
591;1317;Метро «Октябрьское поле»;37.49036031;55.79525995;252;POINT (37.49036031 55.79525995);yellow
592;1323;Кадетский корпус;37.4621665;55.78536979;82;POINT (37.4621665 55.78536979);blue
593;1324;Ул. Марш. Тухачевского, 55;37.4570432;55.783763;82;POINT (37.4570432 55.783763);blue
594;1325;Просп. Марш. Жукова;37.45366888;55.77948226;44;POINT (37.45366888 55.77948226);blue
595;1328;Строгинский бульв.;37.39342509;55.80510476;188;POINT (37.39342509 55.80510476);green
596;1337;Детская п-ка;37.45439344;55.80550491;288;POINT (37.45439344 55.80550491);yellow
597;1340;Детская п-ка;37.45295859;55.80574253;294;POINT (37.45295859 55.80574253);yellow
598;1350;Дмитровское ш., 155;37.5431397332;55.8978382523;436;POINT (37.5431397332 55.8978382523);pink
599;1353;Дубнинская ул., 20;37.56037609;55.87116997;110;POINT (37.56037609 55.87116997);green
600;1354;Школа;37.56362709;55.86709368;110;POINT (37.56362709 55.86709368);green
601;1356;АТС;37.56535188;55.86333465;110;POINT (37.56535188 55.86333465);green
602;1359;АТС;37.5658574342;55.8647360577;110;POINT (37.5658574342 55.8647360577);green
603;1360;Школа;37.5629788041;55.8683673135;110;POINT (37.5629788041 55.8683673135);green
604;1361;Дубнинская ул., 20;37.5594990106;55.8728255191;110;POINT (37.5594990106 55.8728255191);green
605;1363;Дмитровское ш., 155;37.54373784;55.89776096;403;POINT (37.54373784 55.89776096);pink
606;1368;Ул. Исаковского, 33;37.42089408;55.80407017;288;POINT (37.42089408 55.80407017);yellow
607;1369;Ул. Исаковского, 33;37.41984077;55.80453395;294;POINT (37.41984077 55.80453395);yellow
608;1371;Мед. центр им. Бурназяна;37.45857237;55.80681789;288;POINT (37.45857237 55.80681789);yellow
609;1372;Щукино;37.45342849;55.80970491;252;POINT (37.45342849 55.80970491);yellow
610;1373;Щукино;37.45451761;55.8095276;254;POINT (37.45451761 55.8095276);yellow
611;1381;Таллинская ул.;37.39163894;55.80158638;182;POINT (37.39163894 55.80158638);green
612;1382;Отделение социальной защиты населения;37.39496481;55.80508518;182;POINT (37.39496481 55.80508518);green
613;1383;Метро «Строгино» (запад. вестибюль);37.40004981;55.8039924;182;POINT (37.40004981 55.8039924);green
614;1384;Спорткомплекс «Янтарь»;37.40909919;55.80303338;182;POINT (37.40909919 55.80303338);green
615;1385;Воднолыжный стадион;37.43070705;55.8040083;288;POINT (37.43070705 55.8040083);yellow
616;1387;Воднолыжный стадион;37.43006678;55.80425857;294;POINT (37.43006678 55.80425857);yellow
617;1390;Отделение социальной защиты населения;37.39698715;55.80536906;188;POINT (37.39698715 55.80536906);green
618;1397;Метро «Селигерская»;37.54485866;55.86522629;150;POINT (37.54485866 55.86522629);green
619;1398;Больница;37.52803671;55.89034694;70;POINT (37.52803671 55.89034694);blue
620;1399;Талдомская ул.;37.52502774;55.87451881;23;POINT (37.52502774 55.87451881);blue
621;1400;Карельский бульв., 25;37.5356499942;55.8971126701;199;POINT (37.5356499942 55.8971126701);green
622;1407;Бусиново;37.49586551;55.88149213;329;POINT (37.49586551 55.88149213);orange
623;1433;Флотская ул., 36;37.4908598;55.85072296;114;POINT (37.4908598 55.85072296);green
624;1434;Гостиницы ВДНХ;37.57704738;55.84663754;52;POINT (37.57704738 55.84663754);blue
625;1435;Гостиница на Левобережной, 12 - Школа Олимпийского резерва;37.47065999;55.87688404;219;POINT (37.47065999 55.87688404);yellow
626;1436;Интернат;37.46802498;55.87492644;354;POINT (37.46802498 55.87492644);orange
627;1437;Ул. Фабрициуса, 48;37.42799258;55.84401873;10;POINT (37.42799258 55.84401873);blue
628;1438;Муниципалитет Южное Тушино;37.43389981;55.84371267;10;POINT (37.43389981 55.84371267);blue
629;1441;Сходненская ул.;37.437260042;55.8437058667;13;POINT (37.437260042 55.8437058667);blue
630;1442;Муниципалитет Южное Тушино;37.43232828;55.84399565;13;POINT (37.43232828 55.84399565);blue
631;1443;Ул. Фабрициуса, 48;37.42691104;55.844259;13;POINT (37.42691104 55.844259);blue
632;1447;Братцево;37.4038875;55.85035372;189;POINT (37.4038875 55.85035372);green
633;1448;Братцево;37.40504418;55.85059763;189;POINT (37.40504418 55.85059763);green
634;1460;Метро «Щукинская»;37.46212093;55.80968026;294;POINT (37.46212093 55.80968026);yellow
635;1462;Метро «Петровско-Разумовская»;37.57578236;55.83830283;55;POINT (37.57578236 55.83830283);blue
636;1464;Метро «Ховрино»;37.48093398;55.87978588;233;POINT (37.48093398 55.87978588);yellow
637;1465;Гостиница на Левобережной, 12 - Школа Олимпийского резерва;37.47111248;55.87723862;233;POINT (37.47111248 55.87723862);yellow
638;1472;Б. Академическая ул., 15;37.52756056;55.8233604;374;POINT (37.52756056 55.8233604);orange
639;1473;Ул. Приорова;37.52372387;55.81948918;374;POINT (37.52372387 55.81948918);orange
640;1474;Ст. МЦД Красный Балтиец;37.52067156;55.81711481;181;POINT (37.52067156 55.81711481);green
641;1475;Ул. Космонавта Волкова;37.51573247;55.81581301;144;POINT (37.51573247 55.81581301);green
642;1476;2-й Новоподмосковный пер.;37.50986505;55.81558593;144;POINT (37.50986505 55.81558593);green
643;1477;1-й Новоподмосковный пер.;37.50405098;55.81512274;144;POINT (37.50405098 55.81512274);green
644;1479;Ст. Балтийская;37.49425063;55.82273073;144;POINT (37.49425063 55.82273073);green
645;1480;Метро «Войковская»;37.49616275;55.82036658;144;POINT (37.49616275 55.82036658);green
646;1481;Мост Победы;37.49966276;55.81573404;144;POINT (37.49966276 55.81573404);green
647;1482;1-й Новоподмосковный пер.;37.50558532;55.81510542;144;POINT (37.50558532 55.81510542);green
648;1483;2-й Новоподмосковный пер.;37.50953301;55.81534288;144;POINT (37.50953301 55.81534288);green
649;1484;Ул. Космонавта Волкова;37.51608545;55.81563337;144;POINT (37.51608545 55.81563337);green
650;1487;Б. Академическая ул., 15;37.52850676;55.82376841;401;POINT (37.52850676 55.82376841);pink
651;1488;Михалковская ул.;37.54054845;55.83689165;654;POINT (37.54054845 55.83689165);red
652;1493;Метро «Речной вокзал»;37.47606315;55.85508288;73;POINT (37.47606315 55.85508288);blue
653;1495;Валдайский пр.;37.47217399;55.86387651;186;POINT (37.47217399 55.86387651);green
654;1496;Ин-т Усовершенствования врачей;37.4769987;55.86616762;186;POINT (37.4769987 55.86616762);green
655;1497;Петрозаводская ул.;37.49217071;55.86712896;46;POINT (37.49217071 55.86712896);blue
656;1498;Петрозаводская ул.;37.49259798;55.86749759;159;POINT (37.49259798 55.86749759);green
657;1511;Ул. Акад. Бочвара;37.45957822;55.80504096;254;POINT (37.45957822 55.80504096);yellow
658;1512;Ин-т им. Гамалеи;37.45657188;55.8023736;254;POINT (37.45657188 55.8023736);yellow
659;1513;Центр стоматологии;37.45854362;55.79978613;254;POINT (37.45854362 55.79978613);yellow
660;1514;Ул. Гамалеи;37.46496338;55.79792174;254;POINT (37.46496338 55.79792174);yellow
661;1516;Метро «Сокол»;37.51366315;55.80296604;570;POINT (37.51366315 55.80296604);red
662;1517;Ул. Гамалеи;37.46419187;55.7983144;252;POINT (37.46419187 55.7983144);yellow
663;1518;Центр стоматологии;37.45867546;55.79987646;252;POINT (37.45867546 55.79987646);yellow
664;1519;Ин-т им. Гамалеи;37.45679411;55.80235108;252;POINT (37.45679411 55.80235108);yellow
665;1520;Ул. Акад. Бочвара;37.45933135;55.80444979;252;POINT (37.45933135 55.80444979);yellow
666;1521;Метро «Щукинская»;37.46211678;55.80979046;252;POINT (37.46211678 55.80979046);yellow
667;1523;Карельский бульв.;37.53325311;55.8927204;236;POINT (37.53325311 55.8927204);yellow
668;1524;Стадион;37.5363988531;55.8885680925;236;POINT (37.5363988531 55.8885680925);yellow
669;1525;Учинская ул.;37.53364119;55.88596784;236;POINT (37.53364119 55.88596784);yellow
670;1526;Яхромский пр.;37.53293727;55.87982775;236;POINT (37.53293727 55.87982775);yellow
671;1535;Ул. Софьи Ковалевской;37.53382726;55.87674766;236;POINT (37.53382726 55.87674766);yellow
672;1536;Яхромский пр.;37.53324075;55.88056814;236;POINT (37.53324075 55.88056814);yellow
673;1537;Храм Матроны Московской;37.53289689;55.88391511;236;POINT (37.53289689 55.88391511);yellow
674;1538;Учинская ул.;37.53525761;55.88647873;236;POINT (37.53525761 55.88647873);yellow
675;1539;Стадион;37.53680954;55.88958956;236;POINT (37.53680954 55.88958956);yellow
676;1540;Карельский бульв.;37.53598199;55.89367154;435;POINT (37.53598199 55.89367154);pink
677;1541;Клязьминская ул., 19;37.53025071;55.8921211;236;POINT (37.53025071 55.8921211);yellow
678;1542;Гостиница;37.5725073308;55.8247029325;542;POINT (37.5725073308 55.8247029325);red
679;1544;Гостиница;37.5713352;55.82590651;364;POINT (37.5713352 55.82590651);orange
680;1548;Химкинская б-ца;37.44809228;55.87867959;72;POINT (37.44809228 55.87867959);blue
681;1553;Химкинская б-ца;37.44900266;55.87874428;73;POINT (37.44900266 55.87874428);blue
682;1554;Новобутаково;37.4334757137;55.8785095381;73;POINT (37.4334757137 55.8785095381);blue
683;1559;2-й Силикатный пр.;37.51060371;55.767902;96;POINT (37.51060371 55.767902);blue
684;1560;Шелепихинское ш.;37.5218113780417;55.7599854609262;140;POINT (37.5218113780417 55.7599854609262);green
685;1561;Мост Окружной ж.д.;37.52378766;55.76135043;44;POINT (37.52378766 55.76135043);blue
686;1562;1-й Магистральный пр.;37.52102068;55.76419928;44;POINT (37.52102068 55.76419928);blue
687;1563;Ст. Пресня;37.5182031;55.76754506;44;POINT (37.5182031 55.76754506);blue
688;1565;1-я Магистральная ул.;37.51830115;55.7722347;140;POINT (37.51830115 55.7722347);green
689;1566;Магистральный пер.;37.52059378;55.77493984;140;POINT (37.52059378 55.77493984);green
690;1567;Метро «Хорошёвская»;37.52236469;55.77702562;140;POINT (37.52236469 55.77702562);green
691;1568;Метро «Полежаевская»;37.5162217;55.77754224;210;POINT (37.5162217 55.77754224);yellow
692;1569;Ул. Зорге;37.51164378;55.77801774;380;POINT (37.51164378 55.77801774);orange
693;1571;Ул. Мневники, 16;37.48137;55.77397058;76;POINT (37.48137 55.77397058);blue
694;1573;Ул. Народного Ополчения, 3;37.47436459;55.77032028;769;POINT (37.47436459 55.77032028);red
695;1574;Ул. Нижн. Мневники - Байк-центр;37.47181006;55.76580458;226;POINT (37.47181006 55.76580458);yellow
696;1577;Музыкальная академия;37.45561258;55.75212761;368;POINT (37.45561258 55.75212761);orange
697;1579;Красностуденческий пр.;37.55917014;55.82358163;364;POINT (37.55917014 55.82358163);orange
698;1583;Музыкальная академия;37.45731982;55.75316083;370;POINT (37.45731982 55.75316083);orange
699;1587;Ул. Нижн. Мневники - Байк-центр;37.47340113;55.76576691;228;POINT (37.47340113 55.76576691);yellow
700;1588;Ул. Народного Ополчения, 3;37.47557136;55.7709854;438;POINT (37.47557136 55.7709854);pink
701;1592;Магистральный пер.;37.51972195;55.77423671;194;POINT (37.51972195 55.77423671);green
702;1593;1-я Магистральная ул.;37.51774323;55.77193635;194;POINT (37.51774323 55.77193635);green
703;1594;4-я Магистральная ул.;37.51588588;55.76821694;44;POINT (37.51588588 55.76821694);blue
704;1596;1-й Магистральный пр.;37.52047184;55.763989;44;POINT (37.52047184 55.763989);blue
705;1598;Шелепихинское ш.;37.52241847;55.76029218;150;POINT (37.52241847 55.76029218);green
706;1599;Ул. Шеногина;37.5127023296214;55.7649206300394;150;POINT (37.5127023296214 55.7649206300394);green
707;1600;2-й Силикатный пр.;37.511133;55.76871931;150;POINT (37.511133 55.76871931);green
708;1603;Депо им. Баумана;37.64488042;55.83072549;226;POINT (37.64488042 55.83072549);yellow
709;1604;Киностудия им. Горького;37.6381302829;55.8331352314;226;POINT (37.6381302829 55.8331352314);yellow
710;1605;РГСУ;37.63688712;55.8381273;226;POINT (37.63688712 55.8381273);yellow
711;1606;Метро «Ботанический сад»;37.6363036205;55.8438003822;226;POINT (37.6363036205 55.8438003822);yellow
712;1611;Пенягинская ул.;37.35286446;55.83718909;269;POINT (37.35286446 55.83718909);yellow
713;1628;РГСУ;37.6365675403092;55.8366636075452;226;POINT (37.6365675403092 55.8366636075452);yellow
714;1629;Киностудия им. Горького;37.63928629;55.83240674;226;POINT (37.63928629 55.83240674);yellow
715;1630;Депо им. Баумана;37.64546918;55.82975994;226;POINT (37.64546918 55.82975994);yellow
716;1632;Крылатский мост;37.43380938;55.74964744;370;POINT (37.43380938 55.74964744);orange
717;1633;Терехово;37.44916941;55.74997556;370;POINT (37.44916941 55.74997556);orange
718;1635;Ул. Народного Ополчения, 27;37.4797450582;55.7794906675;600;POINT (37.4797450582 55.7794906675);red
719;1636;Ул. Марш. Тухачевского;37.48170582;55.78354181;600;POINT (37.48170582 55.78354181);red
720;1638;Ул. Левитана;37.50422436;55.80005809;1165;POINT (37.50422436 55.80005809);red
721;1639;Метро «Октябрьское поле»;37.49148915;55.79258321;549;POINT (37.49148915 55.79258321);red
722;1640;Ул. Марш. Тухачевского;37.48039102;55.78197346;549;POINT (37.48039102 55.78197346);red
723;1641;Ул. Народного Ополчения, 27;37.4792150174;55.7797198467;587;POINT (37.4792150174 55.7797198467);red
724;1642;Терехово;37.44963863;55.75045421;368;POINT (37.44963863 55.75045421);orange
725;1643;Крылатский мост;37.43381017;55.7499901;368;POINT (37.43381017 55.7499901);orange
726;1649;Походный пр.;37.41490476;55.83714408;111;POINT (37.41490476 55.83714408);green
727;1650;Ул. Вилиса Лациса, 5;37.4293047;55.8649372;189;POINT (37.4293047 55.8649372);green
728;1651;Алешкинский лес;37.4252570162;55.8643438303;189;POINT (37.4252570162 55.8643438303);green
729;1652;Поликлиника - Студгородок;37.42246724;55.862903;189;POINT (37.42246724 55.862903);green
730;1653;Туристская ул., 22;37.4201828;55.86058747;189;POINT (37.4201828 55.86058747);green
731;1654;Туристская ул.;37.42569435;55.84900736;101;POINT (37.42569435 55.84900736);green
732;1657;Туристская ул., 22;37.4209388259;55.861271315;189;POINT (37.4209388259 55.861271315);green
733;1658;Поликлиника - Студгородок;37.42140373;55.86183382;189;POINT (37.42140373 55.86183382);green
734;1659;Алешкинский лес;37.4267289322;55.8643868529;189;POINT (37.4267289322 55.8643868529);green
735;1660;Ул. Вилиса Лациса, 5;37.430877;55.86505136;189;POINT (37.430877 55.86505136);green
736;1661;Просп. Марш. Жукова, 14;37.49558959;55.77574713;264;POINT (37.49558959 55.77574713);yellow
737;1662;Метро «Хорошёвская»;37.52196455;55.7769859;194;POINT (37.52196455 55.7769859);green
738;1663;Причальный пр.;37.51991627;55.76075782;44;POINT (37.51991627 55.76075782);blue
739;1664;Романовская школа;37.5166265628;55.7581231725;44;POINT (37.5166265628 55.7581231725);blue
740;1665;Шелепихинская наб.;37.51854844;55.75535181;44;POINT (37.51854844 55.75535181);blue
741;1667;Б. Филевская ул.;37.50950407;55.7516274;44;POINT (37.50950407 55.7516274);blue
742;1668;Детский парк «Фили»;37.50034444;55.74898457;44;POINT (37.50034444 55.74898457);blue
743;1669;Ул. Барклая;37.49375115;55.74704482;183;POINT (37.49375115 55.74704482);green
744;1670;Б. Филевская ул., 23;37.48961713;55.74587933;183;POINT (37.48961713 55.74587933);green
745;1671;51-я гор. б-ца;37.48428359;55.7443273;183;POINT (37.48428359 55.7443273);green
746;1672;Минская ул.;37.48026633;55.74252574;44;POINT (37.48026633 55.74252574);blue
747;1675;Минская ул.;37.48162984;55.74333513;183;POINT (37.48162984 55.74333513);green
748;1676;51-я гор. б-ца;37.48591497;55.7445386;183;POINT (37.48591497 55.7445386);green
749;1677;Б. Филевская ул., 23;37.49079165;55.74595402;183;POINT (37.49079165 55.74595402);green
750;1678;Ул. Барклая;37.4956724922;55.74740214;44;POINT (37.4956724922 55.74740214);blue
751;1679;Детский парк «Фили»;37.50221342;55.74932498;44;POINT (37.50221342 55.74932498);blue
752;1680;Б. Филевская ул.;37.5070882994;55.7507313905;44;POINT (37.5070882994 55.7507313905);blue
753;1681;Романовская школа;37.5165355;55.75853142;44;POINT (37.5165355 55.75853142);blue
754;1682;Шелепихинская наб.;37.5186476507;55.755720068;44;POINT (37.5186476507 55.755720068);blue
755;1683;Просп. Марш. Жукова, 14;37.49390786;55.77598106;258;POINT (37.49390786 55.77598106);yellow
756;1685;Канал им. Москвы;37.46207598;55.86773538;187;POINT (37.46207598 55.86773538);green
757;1687;Ул. Фомичевой, 8;37.4449533;55.85791685;13;POINT (37.4449533 55.85791685);blue
758;1689;Метро «Сходненская»;37.43914697;55.84994226;114;POINT (37.43914697 55.84994226);green
759;1690;Ул. Фомичевой, 13;37.4396285;55.85599734;10;POINT (37.4396285 55.85599734);blue
760;1691;Ул. Фомичевой, 8;37.44666687;55.85831955;15;POINT (37.44666687 55.85831955);blue
761;1693;К/т «Нева»;37.46871667;55.86279009;186;POINT (37.46871667 55.86279009);green
762;1696;Крылатское;37.40680435;55.76575584;382;POINT (37.40680435 55.76575584);orange
763;1697;Дом быта;37.40671428;55.76178521;382;POINT (37.40671428 55.76178521);orange
764;1699;Осенний бульв.;37.40770584;55.75483457;382;POINT (37.40770584 55.75483457);orange
765;1700;Рубежный пр.;37.41265402;55.74981789;124;POINT (37.41265402 55.74981789);green
766;1701;Управление Соцзащиты;37.41656443;55.74792689;266;POINT (37.41656443 55.74792689);yellow
767;1702;Ул. Крылатские Холмы;37.41982207;55.74643451;266;POINT (37.41982207 55.74643451);yellow
768;1703;Ул. Крылатские Холмы;37.420506336;55.7463488158;266;POINT (37.420506336 55.7463488158);yellow
769;1704;Управление Соцзащиты;37.415616;55.7486642;266;POINT (37.415616 55.7486642);yellow
770;1709;Крылатское;37.4077281;55.76491658;382;POINT (37.4077281 55.76491658);orange
771;1722;Белорусский вокзал;37.57992385;55.7795447;88;POINT (37.57992385 55.7795447);blue
772;1724;Сквер Марш. Жукова;37.50060449;55.77597434;264;POINT (37.50060449 55.77597434);yellow
773;1731;Ул. Куусинена, 13;37.51400031;55.7837982;214;POINT (37.51400031 55.7837982);yellow
774;1732;Ул. Зорге;37.51202073;55.77799856;44;POINT (37.51202073 55.77799856);blue
775;1733;Сквер Марш. Жукова;37.50181329;55.77626432;258;POINT (37.50181329 55.77626432);yellow
776;1735;Метро «Полежаевская»;37.51684257;55.77719101;44;POINT (37.51684257 55.77719101);blue
777;1736;Метро «Полежаевская»;37.52172548;55.77769934;44;POINT (37.52172548 55.77769934);blue
778;1766;Метро «Полежаевская»;37.52132621;55.77794714;140;POINT (37.52132621 55.77794714);green
779;1767;Ул. Шеногина;37.5126878803118;55.7647300073557;96;POINT (37.5126878803118 55.7647300073557);blue
780;1778;Кадетский корпус;37.46359681;55.78508349;44;POINT (37.46359681 55.78508349);blue
781;1780;Ул. Марш. Тухачевского, 28;37.47431644;55.78398392;38;POINT (37.47431644 55.78398392);blue
782;1781;Ул. Марш. Тухачевского, 37;37.4698665;55.78469618;38;POINT (37.4698665 55.78469618);blue
783;1785;Поликлиника № 220;37.56960389;55.76037764;120;POINT (37.56960389 55.76037764);green
784;1786;Метро «Краснопресненская»;37.5773717;55.75946462;120;POINT (37.5773717 55.75946462);green
785;1787;Метро «Краснопресненская»;37.57681869;55.75917284;104;POINT (37.57681869 55.75917284);green
786;1788;Поликлиника № 220;37.5686858;55.76086865;104;POINT (37.5686858 55.76086865);green
787;1791;Живописная ул.;37.45534576;55.78056301;32;POINT (37.45534576 55.78056301);blue
788;1793;Ул. Зорге;37.51142882;55.77775786;490;POINT (37.51142882 55.77775786);pink
789;1807;Ул. Бориса Галушкина;37.64860491;55.8271251;669;POINT (37.64860491 55.8271251);red
790;1808;Ул. Докукина;37.65853636;55.83661618;1110;POINT (37.65853636 55.83661618);red
791;1810;Полиграфический колледж;37.68040773;55.85284045;955;POINT (37.68040773 55.85284045);red
792;1811;Колледж современных технологий;37.68206604;55.85404812;955;POINT (37.68206604 55.85404812);red
793;1812;МГСУ;37.68749597;55.85792016;955;POINT (37.68749597 55.85792016);red
794;1813;Ул. Вешних Вод;37.6904124856528;55.8594666110864;955;POINT (37.6904124856528 55.8594666110864);red
795;1814;Школа № 750;37.69810949;55.86330905;955;POINT (37.69810949 55.86330905);red
796;1815;Федоскинская ул.;37.70452725;55.86618046;725;POINT (37.70452725 55.86618046);red
797;1816;Детская п-ка;37.71271014;55.87189317;286;POINT (37.71271014 55.87189317);yellow
798;1817;Новый театр;37.7169940639466;55.8746905555692;277;POINT (37.7169940639466 55.8746905555692);yellow
799;1818;Ул. Егора Абакумова;37.72026831;55.87847823;286;POINT (37.72026831 55.87847823);yellow
800;1820;Поворот на Мытищи;37.71070625;55.89033938;220;POINT (37.71070625 55.89033938);yellow
801;1821;Перловская;37.70346247;55.89320789;220;POINT (37.70346247 55.89320789);yellow
802;1822;Тайнинская;37.69244225;55.89491191;220;POINT (37.69244225 55.89491191);yellow
803;1823;Осташковское ш.;37.68005239;55.89528162;220;POINT (37.68005239 55.89528162);yellow
804;1829;Ст. МЦД Марк;37.54267483;55.9045914;183;POINT (37.54267483 55.9045914);green
805;1830;Ст. МЦД Лианозово;37.55292267;55.89771976;183;POINT (37.55292267 55.89771976);green
806;1832;Ст. МЦД Марк;37.54355244;55.90415051;197;POINT (37.54355244 55.90415051);green
807;1838;Осташковское ш.;37.67950397;55.89478127;233;POINT (37.67950397 55.89478127);yellow
808;1839;Тайнинская;37.69340007;55.89434421;233;POINT (37.69340007 55.89434421);yellow
809;1840;Перловская;37.70304542;55.89275707;233;POINT (37.70304542 55.89275707);yellow
810;1841;Поворот на Мытищи;37.70963523;55.89010596;233;POINT (37.70963523 55.89010596);yellow
811;1842;Ул. Егора Абакумова;37.71939009;55.87812917;475;POINT (37.71939009 55.87812917);pink
812;1843;Новый театр;37.71513369;55.87437495;475;POINT (37.71513369 55.87437495);pink
813;1844;Детская п-ка;37.7126964;55.87226079;475;POINT (37.7126964 55.87226079);pink
814;1845;Федоскинская ул.;37.70327143;55.86657588;896;POINT (37.70327143 55.86657588);red
815;1846;Школа № 750;37.69695805;55.86363666;896;POINT (37.69695805 55.86363666);red
816;1847;Ул. Вешних Вод;37.69177994;55.86122583;896;POINT (37.69177994 55.86122583);red
817;1848;МГСУ;37.68486133;55.85730595;896;POINT (37.68486133 55.85730595);red
818;1849;Колледж современных технологий;37.68201249;55.85519231;896;POINT (37.68201249 55.85519231);red
819;1851;Ул. Докукина;37.65835428;55.83706201;896;POINT (37.65835428 55.83706201);red
820;1852;Ул. Бориса Галушкина;37.64617758;55.82614962;1519;POINT (37.64617758 55.82614962);red
821;1853;Ул. Корнейчука;37.60850278;55.90218831;120;POINT (37.60850278 55.90218831);green
822;1854;Мелиховская ул.;37.6069196;55.90025694;120;POINT (37.6069196 55.90025694);green
823;1855;Школа;37.61115603;55.89814111;120;POINT (37.61115603 55.89814111);green
824;1856;Ул. Коненкова;37.61111528;55.89638272;1166;POINT (37.61111528 55.89638272);red
825;1857;МФЦ «Бибирево»;37.603355;55.89721515;161;POINT (37.603355 55.89721515);green
826;1858;Мурановская ул., 8;37.60064919;55.89314618;161;POINT (37.60064919 55.89314618);green
827;1859;АТС;37.5970964598;55.8904759599;161;POINT (37.5970964598 55.8904759599);green
828;1860;Управа района Бибирево;37.59799855;55.88861817;373;POINT (37.59799855 55.88861817);orange
829;1861;Ул. Пришвина;37.60202757;55.88673908;373;POINT (37.60202757 55.88673908);orange
830;1862;Метро «Бибирево»;37.60451655;55.88380295;406;POINT (37.60451655 55.88380295);pink
831;1863;Костромская ул.;37.60100024;55.88228674;406;POINT (37.60100024 55.88228674);pink
832;1864;Политехнический колледж;37.59860113;55.8812655;406;POINT (37.59860113 55.8812655);pink
833;1865;Бибиревская ул., 11;37.59532615;55.8800036;406;POINT (37.59532615 55.8800036);pink
834;1866;Бибиревская ул., 1;37.59139521;55.87947255;406;POINT (37.59139521 55.87947255);pink
835;1867;К/т «Марс»;37.58616444;55.87930721;213;POINT (37.58616444 55.87930721);yellow
836;1868;Высоковольтный пр.;37.58597816;55.87569719;393;POINT (37.58597816 55.87569719);orange
837;1869;Алтуфьевское ш., 40;37.58482493;55.86949519;426;POINT (37.58482493 55.86949519);pink
838;1870;Алтуфьевское ш., 30;37.58395857;55.86547528;428;POINT (37.58395857 55.86547528);pink
839;1871;Автобаза Госкино;37.58401196;55.86198633;323;POINT (37.58401196 55.86198633);orange
840;1872;Ул. Хачатуряна;37.58420952;55.85706573;323;POINT (37.58420952 55.85706573);orange
841;1873;Алтуфьевское ш., 12;37.5843616268;55.8537492701;55;POINT (37.5843616268 55.8537492701);blue
842;1875;Ст. МЦД Окружная;37.57408021;55.8456749;52;POINT (37.57408021 55.8456749);blue
843;1877;Гост. «Восход»;37.58574015;55.84897227;251;POINT (37.58574015 55.84897227);yellow
844;1878;Ул. Хачатуряна;37.58475187;55.85719873;161;POINT (37.58475187 55.85719873);green
845;1879;Автобаза Госкино;37.5845476697;55.8628406149;415;POINT (37.5845476697 55.8628406149);pink
846;1881;Алтуфьевское ш., 40;37.58535423;55.86931879;307;POINT (37.58535423 55.86931879);orange
847;1882;Высоковольтный пр.;37.58653936;55.87564824;377;POINT (37.58653936 55.87564824);orange
848;1883;К/т «Марс»;37.5889148391011;55.8793651486024;165;POINT (37.5889148391011 55.8793651486024);green
849;1884;Бибиревская ул., 1;37.5927393447206;55.8792885617776;165;POINT (37.5927393447206 55.8792885617776);green
850;1885;Политехнический колледж;37.59763214;55.88060601;165;POINT (37.59763214 55.88060601);green
851;1887;Ул. Пришвина;37.60092808;55.88765542;377;POINT (37.60092808 55.88765542);orange
852;1888;Управа района Бибирево;37.59744678;55.88905555;377;POINT (37.59744678 55.88905555);orange
853;1889;АТС;37.59818881;55.89096096;165;POINT (37.59818881 55.89096096);green
854;1890;Мурановская ул., 8;37.60169798;55.89353514;165;POINT (37.60169798 55.89353514);green
855;1891;МФЦ «Бибирево»;37.60353556;55.896526;165;POINT (37.60353556 55.896526);green
856;1892;МФЦ «Бибирево»;37.60471308;55.89833668;1005;POINT (37.60471308 55.89833668);red
857;1893;Ул. Коненкова;37.61062347;55.89589276;599;POINT (37.61062347 55.89589276);red
858;1894;Школа;37.61281221;55.89769509;120;POINT (37.61281221 55.89769509);green
859;1895;Мелиховская ул.;37.60787484;55.89962013;120;POINT (37.60787484 55.89962013);green
860;1896;Ул. Корнейчука;37.60863624;55.90198889;120;POINT (37.60863624 55.90198889);green
861;1901;Метро «Алтуфьево»;37.58357793;55.8986693;1030;POINT (37.58357793 55.8986693);red
862;1902;Новгородская ул.;37.58124516;55.89869299;1150;POINT (37.58124516 55.89869299);red
863;1903;Череповецкая ул., 14;37.57614275;55.89873438;944;POINT (37.57614275 55.89873438);red
864;1904;Лианозовский ПКиО;37.5701706748342;55.8988161143256;959;POINT (37.5701706748342 55.8988161143256);red
865;1905;Угличская ул.;37.566948277522;55.8988317504156;977;POINT (37.566948277522 55.8988317504156);red
866;1906;Ст. МЦД Лианозово;37.55151643;55.89879321;554;POINT (37.55151643 55.89879321);red
867;1907;К/т «Волга»;37.541129;55.88932374;143;POINT (37.541129 55.88932374);green
868;1908;Протезный з-д;37.52844164;55.87220277;21;POINT (37.52844164 55.87220277);blue
869;1909;Ул. Ивана Сусанина, 6;37.52647314;55.86870868;21;POINT (37.52647314 55.86870868);blue
870;1910;Детская обл. б-ца;37.52511651;55.86744198;21;POINT (37.52511651 55.86744198);blue
871;1911;Детская обл. б-ца;37.52507589;55.86714984;23;POINT (37.52507589 55.86714984);blue
872;1912;Ул. Ивана Сусанина, 6;37.52702441;55.86915532;23;POINT (37.52702441 55.86915532);blue
873;1913;К/т «Волга»;37.539432;55.88916441;110;POINT (37.539432 55.88916441);green
874;1914;Ст. МЦД Марк;37.54382978;55.90311747;110;POINT (37.54382978 55.90311747);green
875;1916;Угличская ул.;37.56626427;55.89820899;932;POINT (37.56626427 55.89820899);red
876;1917;Лианозовский ПКиО;37.57147407;55.89814523;932;POINT (37.57147407 55.89814523);red
877;1920;Алтуфьевское ш., 87;37.58656909;55.89358258;232;POINT (37.58656909 55.89358258);yellow
878;1921;Костромская ул., 6;37.59106856;55.88698999;245;POINT (37.59106856 55.88698999);yellow
879;1922;Костромская ул., 3;37.59445714;55.88682813;245;POINT (37.59445714 55.88682813);yellow
880;1923;Череповецкая ул., 14;37.57503261;55.89811109;1138;POINT (37.57503261 55.89811109);red
881;1924;Новгородская ул.;37.57905354;55.89806144;1138;POINT (37.57905354 55.89806144);red
882;1927;Осенний бульв.;37.40918034;55.75337822;382;POINT (37.40918034 55.75337822);orange
883;1928;Метро «Крылатское»;37.40881403;55.75606111;382;POINT (37.40881403 55.75606111);orange
884;1930;Дом быта;37.4080859;55.76181782;382;POINT (37.4080859 55.76181782);orange
885;1949;Метро «Медведково»;37.66313581;55.88773895;406;POINT (37.66313581 55.88773895);pink
886;1950;Широкая ул., 5;37.6539932794927;55.8879371362915;1193;POINT (37.6539932794927 55.8879371362915);red
887;1951;Ул. Лескова;37.62079559;55.89172366;527;POINT (37.62079559 55.89172366);red
888;1952;Ул. Лескова, 30;37.61574158;55.89417367;527;POINT (37.61574158 55.89417367);red
889;1953;Дом творчества;37.59435799;55.89846221;1005;POINT (37.59435799 55.89846221);red
890;1954;Дом творчества;37.5958622;55.89790524;987;POINT (37.5958622 55.89790524);red
891;1955;Ул. Коненкова;37.61241027;55.89504079;315;POINT (37.61241027 55.89504079);orange
892;1956;Ул. Лескова, 30;37.6157328;55.89339912;513;POINT (37.6157328 55.89339912);red
893;1957;Широкая ул., 5;37.65613054;55.88761243;1286;POINT (37.65613054 55.88761243);red
894;1958;Метро «Медведково»;37.66335779;55.88745744;598;POINT (37.66335779 55.88745744);red
895;1961;Отделение связи № 224;37.66706226;55.88766677;1413;POINT (37.66706226 55.88766677);red
896;1962;Осташковская ул.;37.67188355;55.88758011;1413;POINT (37.67188355 55.88758011);red
897;1963;Отделение связи № 224;37.66990247;55.88724584;1435;POINT (37.66990247 55.88724584);red
898;1964;Осташковская ул.;37.67266314;55.88564706;558;POINT (37.67266314 55.88564706);red
899;1965;Псковская ул.;37.5543586847;55.9003886998;613;POINT (37.5543586847 55.9003886998);red
900;1966;Псковская ул., 6;37.55014579;55.90266694;613;POINT (37.55014579 55.90266694);red
901;1967;Псковская ул., 12;37.5533246737543;55.9058474595233;613;POINT (37.5533246737543 55.9058474595233);red
902;1968;Пос. Севводстрой;37.55657082;55.90229719;613;POINT (37.55657082 55.90229719);red
903;1969;Псковская ул., 2;37.5549984209;55.9004515725;613;POINT (37.5549984209 55.9004515725);red
904;1970;66-й кв. Кунцева;37.386564539;55.7190976877;139;POINT (37.386564539 55.7190976877);green
905;1972;Ул. Говорова;37.39305644;55.72177017;139;POINT (37.39305644 55.72177017);green
906;1973;Ст. МЦД Сетунь;37.39723772;55.72326052;139;POINT (37.39723772 55.72326052);green
907;1974;Запорожская ул.;37.4040334876;55.7229461898;456;POINT (37.4040334876 55.7229461898);pink
908;1975;Кунцевский рынок;37.40983294;55.72559781;263;POINT (37.40983294 55.72559781);yellow
909;1976;Ст. МЦД Рабочий Поселок;37.41703394;55.72604559;263;POINT (37.41703394 55.72604559);yellow
910;1977;МФЦ района Можайский;37.42157157;55.72618477;263;POINT (37.42157157 55.72618477);yellow
911;1978;Гвардейская ул.;37.42482058;55.72625844;221;POINT (37.42482058 55.72625844);yellow
912;1979;Ул. Красных Зорь;37.4297932554;55.7262158594;221;POINT (37.4297932554 55.7262158594);yellow
913;1980;Ул. Багрицкого;37.4357134885;55.7261798268;221;POINT (37.4357134885 55.7261798268);yellow
914;1981;Ул. Ращупкина;37.44057412;55.72614543;221;POINT (37.44057412 55.72614543);yellow
915;1982;Ст. МЦД Кунцевская;37.4466401;55.7260987;221;POINT (37.4466401 55.7260987);yellow
916;1983;Ст. МЦД Кунцевская;37.44838713;55.72576109;926;POINT (37.44838713 55.72576109);red
917;1984;Метро «Кунцевская»;37.44689187;55.73199387;429;POINT (37.44689187 55.73199387);pink
918;1985;М. Филевская ул.;37.45659117;55.73389906;139;POINT (37.45659117 55.73389906);green
919;1986;Ул. Полосухина;37.46239132;55.73528974;139;POINT (37.46239132 55.73528974);green
920;1987;Пинский пр.;37.47116395;55.73898534;139;POINT (37.47116395 55.73898534);green
921;1988;Б. Филевская ул., 30;37.47228882;55.74068959;139;POINT (37.47228882 55.74068959);green
922;1989;Б. Филевская ул., 41;37.47573759;55.74163856;139;POINT (37.47573759 55.74163856);green
923;1991;Фили;37.49352776;55.75103338;278;POINT (37.49352776 55.75103338);yellow
924;1993;Б. Филевская ул., 41;37.47639038;55.74203842;139;POINT (37.47639038 55.74203842);green
925;1994;Б. Филевская ул., 30;37.47272745;55.74104896;139;POINT (37.47272745 55.74104896);green
926;1995;Метро «Пионерская»;37.46618954;55.73640621;139;POINT (37.46618954 55.73640621);green
927;1996;Ул. Полосухина;37.46144627;55.7352019;139;POINT (37.46144627 55.7352019);green
928;1997;М. Филевская ул.;37.4556065595;55.7338479961;139;POINT (37.4556065595 55.7338479961);green
929;1998;Метро «Кунцевская»;37.44799189;55.73134864;609;POINT (37.44799189 55.73134864);red
930;2000;Ст. МЦД Кунцевская;37.44627301;55.72630461;221;POINT (37.44627301 55.72630461);yellow
931;2001;Ул. Ращупкина;37.4399579658;55.7263662489;221;POINT (37.4399579658 55.7263662489);yellow
932;2002;Ул. Багрицкого;37.4358362854;55.7263762474;221;POINT (37.4358362854 55.7263762474);yellow
933;2003;Ул. Красных Зорь;37.4291237746;55.726429959;221;POINT (37.4291237746 55.726429959);yellow
934;2004;МФЦ района Можайский;37.42205517;55.72633316;263;POINT (37.42205517 55.72633316);yellow
935;2005;Ст. МЦД Рабочий Поселок;37.4173784;55.72622925;263;POINT (37.4173784 55.72622925);yellow
936;2006;Кунцевский рынок;37.409126;55.7257369;263;POINT (37.409126 55.7257369);yellow
937;2008;Ст. МЦД Сетунь;37.39859883;55.72393336;139;POINT (37.39859883 55.72393336);green
938;2014;Дворец спорта «Крылья Советов»;37.4072946114;55.7165677958;139;POINT (37.4072946114 55.7165677958);green
939;2015;Дорогобужская ул.;37.41328378;55.71765921;139;POINT (37.41328378 55.71765921);green
940;2016;Ул. Петра Алексеева;37.42827191;55.7201546;139;POINT (37.42827191 55.7201546);green
941;2018;Ул. Вересаева;37.44496319;55.72220134;139;POINT (37.44496319 55.72220134);green
942;2019;Метро «Кунцевская»;37.44664043;55.73182384;579;POINT (37.44664043 55.73182384);red
943;2020;Ст. МЦД Кунцевская;37.44795237;55.72550941;890;POINT (37.44795237 55.72550941);red
944;2021;Ул. Вересаева;37.44447054;55.72246116;141;POINT (37.44447054 55.72246116);green
945;2024;Ул. Гришина;37.42275044;55.72014075;141;POINT (37.42275044 55.72014075);green
946;2025;Дорогобужская ул.;37.41394452;55.71856171;141;POINT (37.41394452 55.71856171);green
947;2032;Ул. Артамонова - Муз. школа;37.45063209;55.7186653;418;POINT (37.45063209 55.7186653);pink
948;2033;Инициативная ул. - Ломоносовская школа;37.45242225;55.71530552;418;POINT (37.45242225 55.71530552);pink
949;2034;Аминьевское ш., 14;37.45379195;55.7114646;418;POINT (37.45379195 55.7114646);pink
950;2040;93-й кв. Кунцева;37.42362274;55.71650216;206;POINT (37.42362274 55.71650216);yellow
951;2041;Можайское ш.;37.42415999;55.71899711;206;POINT (37.42415999 55.71899711);yellow
952;2045;Метро «ВДНХ»;37.64243654;55.82415646;293;POINT (37.64243654 55.82415646);yellow
953;2047;Абрамцевская ул.;37.57401593;55.90700375;418;POINT (37.57401593 55.90700375);pink
954;2048;Абрамцевская ул., 24;37.57397013;55.90438964;418;POINT (37.57397013 55.90438964);pink
955;2049;Поликлиника;37.57386805;55.90115637;418;POINT (37.57386805 55.90115637);pink
956;2050;Метро «Бибирево»;37.60718595;55.88469379;582;POINT (37.60718595 55.88469379);red
957;2051;Ул. Плещеева, 14;37.61158228;55.88657859;582;POINT (37.61158228 55.88657859);red
958;2052;Ул. Плещеева, 20;37.61468191;55.88789232;582;POINT (37.61468191 55.88789232);red
959;2053;Ул. Плещеева;37.62017402;55.89022806;582;POINT (37.62017402 55.89022806);red
960;2054;Ул. Плещеева;37.61948923;55.89014117;575;POINT (37.61948923 55.89014117);red
961;2055;Ул. Плещеева, 20;37.61548042;55.88843531;575;POINT (37.61548042 55.88843531);red
962;2056;Ул. Плещеева, 14;37.61216674;55.88703867;575;POINT (37.61216674 55.88703867);red
963;2057;Аптека;37.60808357;55.88528535;575;POINT (37.60808357 55.88528535);red
964;2058;Метро «Бибирево»;37.60514405;55.88481304;212;POINT (37.60514405 55.88481304);yellow
965;2059;Поликлиника;37.57415722;55.90189268;418;POINT (37.57415722 55.90189268);pink
966;2060;Абрамцевская ул.;37.5742658;55.90643846;418;POINT (37.5742658 55.90643846);pink
967;2062;Ул. Пришвина;37.60357673;55.88783109;238;POINT (37.60357673 55.88783109);yellow
968;2063;Ул. Коненкова, 8;37.6086734;55.8902522;238;POINT (37.6086734 55.8902522);yellow
969;2064;Ул. Коненкова, 12;37.61144969;55.89259805;238;POINT (37.61144969 55.89259805);yellow
970;2065;Метро «Медведково»;37.66315626;55.88746462;206;POINT (37.66315626 55.88746462);yellow
971;2069;Универсам;37.67814787;55.88735679;438;POINT (37.67814787 55.88735679);pink
972;2072;Ул. Коненкова;37.61143348;55.89513344;238;POINT (37.61143348 55.89513344);yellow
973;2073;Ул. Коненкова, 12;37.61082509;55.89190771;238;POINT (37.61082509 55.89190771);yellow
974;2074;Ул. Коненкова, 8;37.60878467;55.89058427;238;POINT (37.60878467 55.89058427);yellow
975;2075;Ул. Пришвина;37.60227688;55.88751684;238;POINT (37.60227688 55.88751684);yellow
976;2076;Белозерская ул., 23;37.62301236;55.89713318;281;POINT (37.62301236 55.89713318);yellow
977;2077;Школа № 1413;37.61644144;55.89633156;281;POINT (37.61644144 55.89633156);yellow
978;2078;Илимская ул.;37.5851668;55.88993992;212;POINT (37.5851668 55.88993992);yellow
979;2079;Илимская ул., 3;37.58129313;55.89020911;212;POINT (37.58129313 55.89020911);yellow
980;2080;Абрамцевская ул., 1;37.57375424;55.89172585;212;POINT (37.57375424 55.89172585);yellow
981;2081;МФЦ Лианозово;37.57388324;55.89543655;212;POINT (37.57388324 55.89543655);yellow
982;2084;Череповецкая ул., 14;37.57370103;55.89764729;212;POINT (37.57370103 55.89764729);yellow
983;2085;МФЦ Лианозово;37.57357151;55.89448668;212;POINT (37.57357151 55.89448668);yellow
984;2086;Абрамцевская ул., 1;37.57423478;55.89119231;212;POINT (37.57423478 55.89119231);yellow
985;2087;Илимская ул., 3;37.5819541;55.88988187;212;POINT (37.5819541 55.88988187);yellow
986;2088;Школа № 1413;37.61572096;55.89642017;281;POINT (37.61572096 55.89642017);yellow
987;2089;Белозерская ул., 23;37.62294356;55.89663894;281;POINT (37.62294356 55.89663894);yellow
988;2090;Барвихинская ул., 4;37.38987586;55.71524325;139;POINT (37.38987586 55.71524325);green
989;2091;Можайское ш.;37.39881018;55.71606243;139;POINT (37.39881018 55.71606243);green
990;2092;Школа;37.39483794;55.71950802;139;POINT (37.39483794 55.71950802);green
991;2100;Поликлиника;37.39277016;55.70934428;349;POINT (37.39277016 55.70934428);orange
992;2101;Беловежская ул., 19;37.39399301;55.71400331;349;POINT (37.39399301 55.71400331);orange
993;2102;Вяземская ул.;37.40209288;55.71518298;349;POINT (37.40209288 55.71518298);orange
994;2103;Ул. Говорова;37.3930362112;55.7208338383;139;POINT (37.3930362112 55.7208338383);green
995;2104;Школа;37.39511592;55.7189863;139;POINT (37.39511592 55.7189863);green
996;2105;Барвихинская ул., 4;37.38956128;55.71547844;139;POINT (37.38956128 55.71547844);green
997;2107;Ул. Марш. Сергеева;37.41199036;55.73832891;607;POINT (37.41199036 55.73832891);red
998;2108;Храм Иоанна Русского;37.40674544;55.73476299;124;POINT (37.40674544 55.73476299);green
999;2110;Можайское ш.;37.4236718;55.71906429;206;POINT (37.4236718 55.71906429);yellow
1000;2111;93-й кв. Кунцева;37.42310696;55.71642729;206;POINT (37.42310696 55.71642729);yellow
1001;2119;Аминьевское ш., 14;37.45430906;55.71221723;458;POINT (37.45430906 55.71221723);pink
1002;2120;Инициативная ул. - Ломоносовская школа;37.45301225;55.71504925;458;POINT (37.45301225 55.71504925);pink
1003;2126;З-д КИМ;37.42299797;55.71386623;206;POINT (37.42299797 55.71386623);yellow
1004;2128;Спорткомплекс «Сетунь»;37.40718014;55.72197915;210;POINT (37.40718014 55.72197915);yellow
1005;2129;М-н «Мебель»;37.40584183;55.73176705;124;POINT (37.40584183 55.73176705);green
1006;2130;Храм Иоанна Русского;37.40811863;55.73536344;254;POINT (37.40811863 55.73536344);yellow
1007;2131;Ул. Марш. Сергеева;37.41398915;55.7392575;624;POINT (37.41398915 55.7392575);red
1008;2134;Метро «Варшавская»;37.61924839;55.6525171;145;POINT (37.61924839 55.6525171);green
1009;2137;Метродепо;37.61955079;55.63584604;145;POINT (37.61955079 55.63584604);green
1010;2138;Центр боевых искусств;37.61910102;55.63172001;145;POINT (37.61910102 55.63172001);green
1011;2139;Управление Соцзащиты;37.61731063;55.62800656;145;POINT (37.61731063 55.62800656);green
1012;2140;Варшавское ш., 125;37.61573092;55.62478102;145;POINT (37.61573092 55.62478102);green
1013;2141;МФЦ Чертаново Северное;37.61328525;55.6225637;145;POINT (37.61328525 55.6225637);green
1014;2142;Метро «Южная»;37.60771868;55.62041711;145;POINT (37.60771868 55.62041711);green
1015;2143;Парк 30-летия Победы;37.60587458;55.61656673;145;POINT (37.60587458 55.61656673);green
1016;2144;Школа;37.6050243295;55.6148258166;145;POINT (37.6050243295 55.6148258166);green
1017;2145;Метро «Пражская»;37.60106868;55.61157464;145;POINT (37.60106868 55.61157464);green
1018;2146;Ул. Красного Маяка, 4;37.59843929;55.61199274;145;POINT (37.59843929 55.61199274);green
1019;2147;Ул. Красного Маяка, 10;37.59390348;55.61254399;145;POINT (37.59390348 55.61254399);green
1020;2148;Ул. Красного Маяка, 9;37.58626023;55.61314722;145;POINT (37.58626023 55.61314722);green
1021;2149;Ул. Красного Маяка, 11;37.5831720745268;55.6133578721323;145;POINT (37.5831720745268 55.6133578721323);green
1022;2150;Ул. Красного Маяка, 13;37.57909846;55.61194562;145;POINT (37.57909846 55.61194562);green
1023;2151;Спортбаза;37.57872281;55.60906054;145;POINT (37.57872281 55.60906054);green
1024;2153;16-й мкр. Чертанова;37.57931199;55.60649916;175;POINT (37.57931199 55.60649916);green
1025;2154;Спортбаза;37.579012;55.60964272;175;POINT (37.579012 55.60964272);green
1026;2155;Ул. Красного Маяка, 13;37.57951671;55.61239632;175;POINT (37.57951671 55.61239632);green
1027;2156;Ул. Красного Маяка, 11;37.58526232;55.61305837;175;POINT (37.58526232 55.61305837);green
1028;2157;Ул. Красного Маяка, 9;37.5880859782815;55.612816043724;175;POINT (37.5880859782815 55.612816043724);green
1029;2158;Ул. Красного Маяка, 10;37.59418982;55.61228311;175;POINT (37.59418982 55.61228311);green
1030;2159;Ул. Красного Маяка, 4;37.59975176;55.61149355;175;POINT (37.59975176 55.61149355);green
1031;2160;Метро «Пражская»;37.60395193;55.61174416;175;POINT (37.60395193 55.61174416);green
1032;2161;Школа;37.60533101;55.61441353;175;POINT (37.60533101 55.61441353);green
1033;2162;Парк 30-летия Победы;37.6064883;55.61702422;175;POINT (37.6064883 55.61702422);green
1034;2163;Варшавское ш., 125;37.61660243;55.62497682;175;POINT (37.61660243 55.62497682);green
1035;2164;Управление Соцзащиты;37.61794252;55.62788239;175;POINT (37.61794252 55.62788239);green
1036;2165;Центр боевых искусств;37.61948665;55.63111162;175;POINT (37.61948665 55.63111162);green
1037;2166;Метродепо;37.62009433;55.63680698;175;POINT (37.62009433 55.63680698);green
1038;2168;Варшавское ш., 90;37.61996742;55.64840421;175;POINT (37.61996742 55.64840421);green
1039;2170;Ул. Пришвина, 3;37.5934314;55.88968222;212;POINT (37.5934314 55.88968222);yellow
1040;2171;Ул. Пришвина, 3;37.59403035;55.88944034;212;POINT (37.59403035 55.88944034);yellow
1041;2172;Илимская ул.;37.58827937;55.88961026;212;POINT (37.58827937 55.88961026);yellow
1042;2173;Алтуфьевское ш., 95;37.5868225;55.90187385;197;POINT (37.5868225 55.90187385);green
1043;2174;6-й мкр. Бибирева;37.58687772;55.90388805;197;POINT (37.58687772 55.90388805);green
1044;2175;Алтуфьевское ш., 102;37.58960501;55.90581077;197;POINT (37.58960501 55.90581077);green
1045;2177;Алтуфьевское ш., 95;37.5873897005;55.9023828562;183;POINT (37.5873897005 55.9023828562);green
1046;2182;Метро «Бибирево»;37.60478498;55.88392254;356;POINT (37.60478498 55.88392254);orange
1047;2183;Костромская ул.;37.58645781;55.88904435;232;POINT (37.58645781 55.88904435);yellow
1048;2184;Метро «Владыкино»;37.58960182;55.84802248;268;POINT (37.58960182 55.84802248);yellow
1049;2185;Метро «Владыкино»;37.59022872;55.84856576;251;POINT (37.59022872 55.84856576);yellow
1050;2186;Ул. Хачатуряна;37.58472863;55.85736058;142;POINT (37.58472863 55.85736058);green
1051;2187;К/т «Марс»;37.58671071;55.88031478;457;POINT (37.58671071 55.88031478);pink
1052;2188;Стандартная ул.;37.58684239;55.8837597;457;POINT (37.58684239 55.8837597);pink
1053;2191;Ул. Рудневой;37.67669958;55.86704767;278;POINT (37.67669958 55.86704767);yellow
1054;2192;Киноконцертный зал «Орион»;37.67562029;55.86847623;206;POINT (37.67562029 55.86847623);yellow
1055;2193;Рынок «Северный»;37.67637156;55.87097345;206;POINT (37.67637156 55.87097345);yellow
1056;2194;Староватутинский пр.;37.67856424;55.87376801;206;POINT (37.67856424 55.87376801);yellow
1057;2195;Тайнинская ул.;37.68034986;55.87792707;206;POINT (37.68034986 55.87792707);yellow
1058;2196;Погранинститут;37.67877411;55.88085546;206;POINT (37.67877411 55.88085546);yellow
1059;2197;Погранинститут;37.6784863;55.88053822;206;POINT (37.6784863 55.88053822);yellow
1060;2198;Тайнинская ул.;37.6796479106158;55.8757605827669;206;POINT (37.6796479106158 55.8757605827669);yellow
1061;2199;Староватутинский пр.;37.6773507;55.87275037;367;POINT (37.6773507 55.87275037);orange
1062;2200;Рынок «Северный»;37.67565597;55.87011277;367;POINT (37.67565597 55.87011277);orange
1063;2201;Киноконцертный зал «Орион»;37.67816482;55.86686897;356;POINT (37.67816482 55.86686897);orange
1064;2205;Широкая ул.;37.67454092;55.8889803;671;POINT (37.67454092 55.8889803);red
1065;2206;Северодвинская ул.;37.67439653;55.89134144;671;POINT (37.67439653 55.89134144);red
1066;2207;Северодвинская ул., 19;37.679885;55.89319579;438;POINT (37.679885 55.89319579);pink
1067;2208;Северодвинская ул., 11;37.68015793;55.89062868;438;POINT (37.68015793 55.89062868);pink
1068;2209;Северодвинская ул., 9;37.67937615;55.88814578;438;POINT (37.67937615 55.88814578);pink
1069;2210;Метро «Медведково»;37.65942618;55.88784634;739;POINT (37.65942618 55.88784634);red
1070;2211;Череповецкая ул., 14;37.57406095;55.8993911;418;POINT (37.57406095 55.8993911);pink
1071;2233;Метро «Филевский парк»;37.48359101;55.74040022;88;POINT (37.48359101 55.74040022);blue
1072;2234;Метро «Филевский парк»;37.48348399;55.73907723;160;POINT (37.48348399 55.73907723);green
